{
   "type": "FeatureCollection",
   "features": [
  {
    "type": "Feature",
    "geometry": {
       "type": "Point",
       "coordinates":  [ 37.0190068,-0.4919528 ]
    },
    "properties": {
    "id":8852,
    "cbk_growers_code":"XAC55",
    "producer_name":"Aguthi F.C.S. Ltd",
    "Actor":"Cooperative Society",
    "Location accuracy":"Proximity",
    "Location notes":"",
    "Location source":"Ward"
    }
  },
  {
    "type": "Feature",
    "geometry": {
       "type": "Point",
       "coordinates":  [ 37.9732459,0.16591033 ]
    },
    "properties": {
    "id":9026,
    "cbk_growers_code":"XBA01F01",
    "producer_name":"Amungenti Factory",
    "Actor":"Factory",
    "Location accuracy":"Proximity",
    "Location notes":"",
    "Location source":"Sublocation"
    }
  },
  {
    "type": "Feature",
    "geometry": {
       "type": "Point",
       "coordinates":  [ 37.9732459,0.16591033 ]
    },
    "properties": {
    "id":9039,
    "cbk_growers_code":"XBA19",
    "producer_name":"Amungeti",
    "Actor":"Cooperative Society",
    "Location accuracy":"Proximity",
    "Location notes":"",
    "Location source":"Sublocation"
    }
  },
  {
    "type": "Feature",
    "geometry": {
       "type": "Point",
       "coordinates":  [ 37.8306013,0.10142157 ]
    },
    "properties": {
    "id":9056,
    "cbk_growers_code":"XBA35F02",
    "producer_name":"Antuamburi Factory",
    "Actor":"Factory",
    "Location accuracy":"Proximity",
    "Location notes":"",
    "Location source":"Sublocation"
    }
  },
  {
    "type": "Feature",
    "geometry": {
       "type": "Point",
       "coordinates":  [ 37.93097921,-2.114481038 ]
    },
    "properties": {
    "id":8269,
    "cbk_growers_code":"BF.0002",
    "producer_name":"Athiani Mubuti F.",
    "Actor":"Estate Producers",
    "Location accuracy":"Proximity",
    "Location notes":"close",
    "Location source":"WMS"
    }
  },
  {
    "type": "Feature",
    "geometry": {
       "type": "Point",
       "coordinates":  [ 38.011719,0.20763849 ]
    },
    "properties": {
    "id":9027,
    "cbk_growers_code":"XBA01F02",
    "producer_name":"Athiru Gaiti Factory",
    "Actor":"Factory",
    "Location accuracy":"Proximity",
    "Location notes":"",
    "Location source":"Ward"
    }
  },
  {
    "type": "Feature",
    "geometry": {
       "type": "Point",
       "coordinates":  [ 36.1583753,0.08092781 ]
    },
    "properties": {
    "id":8303,
    "cbk_growers_code":"CA.0004",
    "producer_name":"Banks Solai",
    "Actor":"Estate Producers",
    "Location accuracy":"Proximity",
    "Location notes":"",
    "Location source":"Ward"
    }
  },
  {
    "type": "Feature",
    "geometry": {
       "type": "Point",
       "coordinates":  [ 37.3452673,-0.5050856 ]
    },
    "properties": {
    "id":8950,
    "cbk_growers_code":"XAD03",
    "producer_name":"Baragwi F.C.S. Ltd",
    "Actor":"Cooperative Society",
    "Location accuracy":"Proximity",
    "Location notes":"",
    "Location source":"Ward"
    }
  },
  {
    "type": "Feature",
    "geometry": {
       "type": "Point",
       "coordinates":  [ 37.1320052,-0.483989 ]
    },
    "properties": {
    "id":8819,
    "cbk_growers_code":"XAC13",
    "producer_name":"Barichu F.C.S. Ltd",
    "Actor":"coop",
    "Location accuracy":"good",
    "Location notes":"LimeSurvey on site",
    "Location source":"Lee Karimi"
    }
  },
  {
    "type": "Feature",
    "geometry": {
       "type": "Point",
       "coordinates":  [ 36.86277737,-0.933015538 ]
    },
    "properties": {
    "id":8109,
    "cbk_growers_code":"AI.0090",
    "producer_name":"Barigitu",
    "Actor":"Estate Producers",
    "Location accuracy":"Proximity",
    "Location notes":"close",
    "Location source":"WMS"
    }
  },
  {
    "type": "Feature",
    "geometry": {
       "type": "Point",
       "coordinates":  [ 37.0425,-0.969166667 ]
    },
    "properties": {
    "id":7725,
    "cbk_growers_code":"AB.0003",
    "producer_name":"Bendor and Haco Industries Ltd",
    "Actor":"coop",
    "Location accuracy":"Verified",
    "Location notes":"",
    "Location source":"WMS"
    }
  },
  {
    "type": "Feature",
    "geometry": {
       "type": "Point",
       "coordinates":  [ 37.01509843,-1.055100123 ]
    },
    "properties": {
    "id":7739,
    "cbk_growers_code":"AB.0026",
    "producer_name":"Benvar Estate",
    "Actor":"Estate Producers",
    "Location accuracy":"Verified",
    "Location notes":"",
    "Location source":"WMS"
    }
  },
  {
    "type": "Feature",
    "geometry": {
       "type": "Point",
       "coordinates":  [ 34.9855,1.02825 ]
    },
    "properties": {
    "id":9555,
    "cbk_growers_code":"XCE33F01",
    "producer_name":"Boma Factory",
    "Actor":"Factory",
    "Location accuracy":"Proximity",
    "Location notes":"",
    "Location source":"Kenya Schools"
    }
  },
  {
    "type": "Feature",
    "geometry": {
       "type": "Point",
       "coordinates":  [ 34.6800159,-0.9087055 ]
    },
    "properties": {
    "id":9831,
    "cbk_growers_code":"XEA17F05",
    "producer_name":"Borabu",
    "Actor":"Factory",
    "Location accuracy":"Proximity",
    "Location notes":"",
    "Location source":"Ward"
    }
  },
  {
    "type": "Feature",
    "geometry": {
       "type": "Point",
       "coordinates":  [ 35.1148769,0.9528564 ]
    },
    "properties": {
    "id":9643,
    "cbk_growers_code":"XCI03",
    "producer_name":"Botwa F.C.S. Ltd",
    "Actor":"Cooperative Society",
    "Location accuracy":"NULL",
    "Location notes":"NULL",
    "Location source":"NULL"
    }
  },
  {
    "type": "Feature",
    "geometry": {
       "type": "Point",
       "coordinates":  [ 37.06427686,-1.012936374 ]
    },
    "properties": {
    "id":7801,
    "cbk_growers_code":"AB.0281",
    "producer_name":"Branan and Transebel Ltd",
    "Actor":"Estate Producers",
    "Location accuracy":"Proximity",
    "Location notes":"close",
    "Location source":"WMS"
    }
  },
  {
    "type": "Feature",
    "geometry": {
       "type": "Point",
       "coordinates":  [ 37.6210526,-0.1212925 ]
    },
    "properties": {
    "id":9193,
    "cbk_growers_code":"XBB70F03",
    "producer_name":"Bubui Factory",
    "Actor":"Factory",
    "Location accuracy":"Proximity",
    "Location notes":"",
    "Location source":"WMS"
    }
  },
  {
    "type": "Feature",
    "geometry": {
       "type": "Point",
       "coordinates":  [ 36.9263783,-0.9580044 ]
    },
    "properties": {
    "id":7728,
    "cbk_growers_code":"AB.0008",
    "producer_name":"Chania Bridge and Chania Enterprises Ltd",
    "Actor":"Estate Producers",
    "Location accuracy":"Proximity",
    "Location notes":"Check location",
    "Location source":"Ward"
    }
  },
  {
    "type": "Feature",
    "geometry": {
       "type": "Point",
       "coordinates":  [ 36.9263783,-0.9580044 ]
    },
    "properties": {
    "id":7737,
    "cbk_growers_code":"AB.0021",
    "producer_name":"Chania Estate",
    "Actor":"Estate Producers",
    "Location accuracy":"Proximity",
    "Location notes":"Check location",
    "Location source":"Ward"
    }
  },
  {
    "type": "Feature",
    "geometry": {
       "type": "Point",
       "coordinates":  [ 38.3822413,-3.9307181 ]
    },
    "properties": {
    "id":9904,
    "cbk_growers_code":"XGA01F05",
    "producer_name":"Chawia Factory",
    "Actor":"Factory",
    "Location accuracy":"Proximity",
    "Location notes":"",
    "Location source":"Ward"
    }
  },
  {
    "type": "Feature",
    "geometry": {
       "type": "Point",
       "coordinates":  [ 34.82619582,0.923381033 ]
    },
    "properties": {
    "id":8345,
    "cbk_growers_code":"CB.0419",
    "producer_name":"Chebukaka F.C.S. Ltd",
    "Actor":"Estate Producers",
    "Location accuracy":"Proximity",
    "Location notes":"Disambiguation",
    "Location source":"WMS"
    }
  },
  {
    "type": "Feature",
    "geometry": {
       "type": "Point",
       "coordinates":  [ 34.82619582,0.923381033 ]
    },
    "properties": {
    "id":9672,
    "cbk_growers_code":"XCI29",
    "producer_name":"Chebukaka F.C.S. Ltd",
    "Actor":"Cooperative Society",
    "Location accuracy":"Proximity",
    "Location notes":"Disambiguation",
    "Location source":"WMS"
    }
  },
  {
    "type": "Feature",
    "geometry": {
       "type": "Point",
       "coordinates":  [ 34.55764836,0.626938427 ]
    },
    "properties": {
    "id":9739,
    "cbk_growers_code":"XDA38",
    "producer_name":"Chenjeni F.C.S Ltd",
    "Actor":"Cooperative Society",
    "Location accuracy":"Proximity",
    "Location notes":"",
    "Location source":"Town"
    }
  },
  {
    "type": "Feature",
    "geometry": {
       "type": "Point",
       "coordinates":  [ 34.55764836,0.626938427 ]
    },
    "properties": {
    "id":9740,
    "cbk_growers_code":"XDA38F01",
    "producer_name":"Chenjeni Factory",
    "Actor":"Factory",
    "Location accuracy":"Proximity",
    "Location notes":"",
    "Location source":"Town"
    }
  },
  {
    "type": "Feature",
    "geometry": {
       "type": "Point",
       "coordinates":  [ 35.2958607,-0.2205489 ]
    },
    "properties": {
    "id":8391,
    "cbk_growers_code":"CH.0001",
    "producer_name":"Chepkechei and Chepkechei Company Ltd",
    "Actor":"Estate Producers",
    "Location accuracy":"Proximity",
    "Location notes":"close",
    "Location source":"WMS"
    }
  },
  {
    "type": "Feature",
    "geometry": {
       "type": "Point",
       "coordinates":  [ 34.4386052,0.84233914 ]
    },
    "properties": {
    "id":9691,
    "cbk_growers_code":"XDA04F01",
    "producer_name":"Chepkube Factory",
    "Actor":"Factory",
    "Location accuracy":"Proximity",
    "Location notes":"",
    "Location source":"Sublocation"
    }
  },
  {
    "type": "Feature",
    "geometry": {
       "type": "Point",
       "coordinates":  [ 34.447972,0.83330846 ]
    },
    "properties": {
    "id":9719,
    "cbk_growers_code":"XDA22",
    "producer_name":"Cheptais F.C.S. Ltd",
    "Actor":"Cooperative Society",
    "Location accuracy":"Proximity",
    "Location notes":"",
    "Location source":"Ward"
    }
  },
  {
    "type": "Feature",
    "geometry": {
       "type": "Point",
       "coordinates":  [ 34.447972,0.83330846 ]
    },
    "properties": {
    "id":9720,
    "cbk_growers_code":"XDA22F01",
    "producer_name":"Cheptais Factory",
    "Actor":"Factory",
    "Location accuracy":"Proximity",
    "Location notes":"",
    "Location source":"Ward"
    }
  },
  {
    "type": "Feature",
    "geometry": {
       "type": "Point",
       "coordinates":  [ 35.00803432,0.990718816 ]
    },
    "properties": {
    "id":9646,
    "cbk_growers_code":"XCI07",
    "producer_name":"Cherengany C.G.C.S. Ltd",
    "Actor":"Cooperative Society",
    "Location accuracy":"Proximity",
    "Location notes":"Cherengany vs Cherangany",
    "Location source":"WMS"
    }
  },
  {
    "type": "Feature",
    "geometry": {
       "type": "Point",
       "coordinates":  [ 35.31855095,0.012327193 ]
    },
    "properties": {
    "id":8385,
    "cbk_growers_code":"CF.0057",
    "producer_name":"Cherobon",
    "Actor":"Small Estates",
    "Location accuracy":"Proximity",
    "Location notes":"",
    "Location source":"WMS"
    }
  },
  {
    "type": "Feature",
    "geometry": {
       "type": "Point",
       "coordinates":  [ 34.5026941,0.80633359 ]
    },
    "properties": {
    "id":9685,
    "cbk_growers_code":"XDA02",
    "producer_name":"Chesikaki F.C.S. Ltd",
    "Actor":"Cooperative Society",
    "Location accuracy":"Proximity",
    "Location notes":"",
    "Location source":"Ward"
    }
  },
  {
    "type": "Feature",
    "geometry": {
       "type": "Point",
       "coordinates":  [ 35.3202778,-0.1162263 ]
    },
    "properties": {
    "id":9610,
    "cbk_growers_code":"XCE74F01",
    "producer_name":"Chesonoi",
    "Actor":"Factory",
    "Location accuracy":"Proximity",
    "Location notes":"",
    "Location source":"WMS"
    }
  },
  {
    "type": "Feature",
    "geometry": {
       "type": "Point",
       "coordinates":  [ 35.3202778,-0.1162263 ]
    },
    "properties": {
    "id":9571,
    "cbk_growers_code":"XCE42F04",
    "producer_name":"Chesonoi Factory",
    "Actor":"Factory",
    "Location accuracy":"Proximity",
    "Location notes":"",
    "Location source":"WMS"
    }
  },
  {
    "type": "Feature",
    "geometry": {
       "type": "Point",
       "coordinates":  [ 35.3658898,-0.1665496 ]
    },
    "properties": {
    "id":9578,
    "cbk_growers_code":"XCE45F01",
    "producer_name":"Chilchila Factory",
    "Actor":"Factory",
    "Location accuracy":"Proximity",
    "Location notes":"",
    "Location source":"Ward"
    }
  },
  {
    "type": "Feature",
    "geometry": {
       "type": "Point",
       "coordinates":  [ 36.8979766,-0.5852827 ]
    },
    "properties": {
    "id":8793,
    "cbk_growers_code":"XAC04F02",
    "producer_name":"Chinga Factory",
    "Actor":"Factory",
    "Location accuracy":"Proximity",
    "Location notes":"",
    "Location source":"Ward"
    }
  },
  {
    "type": "Feature",
    "geometry": {
       "type": "Point",
       "coordinates":  [ 34.8476282,1.0389467 ]
    },
    "properties": {
    "id":8336,
    "cbk_growers_code":"CB.0018",
    "producer_name":"Chorlim",
    "Actor":"Small Estates",
    "Location accuracy":"Proximity",
    "Location notes":"",
    "Location source":"WMS"
    }
  },
  {
    "type": "Feature",
    "geometry": {
       "type": "Point",
       "coordinates":  [ 36.9599585,-0.4608074 ]
    },
    "properties": {
    "id":8859,
    "cbk_growers_code":"XAC56F01",
    "producer_name":"Chorongi Factory",
    "Actor":"Factory",
    "Location accuracy":"Proximity",
    "Location notes":"",
    "Location source":"Sublocation"
    }
  },
  {
    "type": "Feature",
    "geometry": {
       "type": "Point",
       "coordinates":  [ 37.67823542,0.068115818 ]
    },
    "properties": {
    "id":9087,
    "cbk_growers_code":"XBB06F01",
    "producer_name":"Chugu Factory",
    "Actor":"Factory",
    "Location accuracy":"Proximity",
    "Location notes":"",
    "Location source":"WMS"
    }
  },
  {
    "type": "Feature",
    "geometry": {
       "type": "Point",
       "coordinates":  [ 34.61499807,0.638780628 ]
    },
    "properties": {
    "id":9683,
    "cbk_growers_code":"XDA01F01",
    "producer_name":"Chwele Factory",
    "Actor":"Factory",
    "Location accuracy":"Proximity",
    "Location notes":"",
    "Location source":"Town"
    }
  },
  {
    "type": "Feature",
    "geometry": {
       "type": "Point",
       "coordinates":  [ 36.77753333,-1.13685 ]
    },
    "properties": {
    "id":8089,
    "cbk_growers_code":"AI.0008",
    "producer_name":"Cianda",
    "Actor":"Estate Producers",
    "Location accuracy":"Verified",
    "Location notes":"",
    "Location source":"WMS"
    }
  },
  {
    "type": "Feature",
    "geometry": {
       "type": "Point",
       "coordinates":  [ 36.1583753,0.08092781 ]
    },
    "properties": {
    "id":8312,
    "cbk_growers_code":"CA.0025",
    "producer_name":"Cop-Solai and Ceres Estates Ltd",
    "Actor":"Estate Producers",
    "Location accuracy":"Proximity",
    "Location notes":"",
    "Location source":"Ward"
    }
  },
  {
    "type": "Feature",
    "geometry": {
       "type": "Point",
       "coordinates":  [ 34.7759172,-0.678973999 ]
    },
    "properties": {
    "id":8431,
    "cbk_growers_code":"EB.0001",
    "producer_name":"Crf Kisii and Coffee Research Foundation",
    "Actor":"Estate Producers",
    "Location accuracy":"Proximity",
    "Location notes":"",
    "Location source":"WMS"
    }
  },
  {
    "type": "Feature",
    "geometry": {
       "type": "Point",
       "coordinates":  [ 36.92107485,-1.097174704 ]
    },
    "properties": {
    "id":7738,
    "cbk_growers_code":"AB.0025",
    "producer_name":"Eaagads and Kofinaf Co Ltd",
    "Actor":"Estate Producers",
    "Location accuracy":"Proximity",
    "Location notes":"close",
    "Location source":"WMS"
    }
  },
  {
    "type": "Feature",
    "geometry": {
       "type": "Point",
       "coordinates":  [ 35.0535129,-0.8288506 ]
    },
    "properties": {
    "id":9834,
    "cbk_growers_code":"XEA18F02",
    "producer_name":"Ekerubo",
    "Actor":"Factory",
    "Location accuracy":"Proximity",
    "Location notes":"",
    "Location source":"Sublocation"
    }
  },
  {
    "type": "Feature",
    "geometry": {
       "type": "Point",
       "coordinates":  [ 37.55769898,-0.47027528 ]
    },
    "properties": {
    "id":9370,
    "cbk_growers_code":"XBD28F01",
    "producer_name":"Ena Factory",
    "Actor":"Factory",
    "Location accuracy":"Proximity",
    "Location notes":"",
    "Location source":"WMS"
    }
  },
  {
    "type": "Feature",
    "geometry": {
       "type": "Point",
       "coordinates":  [ 34.7249626,1.1274301 ]
    },
    "properties": {
    "id":8325,
    "cbk_growers_code":"CA.0198",
    "producer_name":"Endebess and Gatatha Farmers Company Ltd",
    "Actor":"Estate Producers",
    "Location accuracy":"Proximity",
    "Location notes":"",
    "Location source":"Ward"
    }
  },
  {
    "type": "Feature",
    "geometry": {
       "type": "Point",
       "coordinates":  [ 36.73322974,-1.251334587 ]
    },
    "properties": {
    "id":8459,
    "cbk_growers_code":"FA.0020",
    "producer_name":"Faculty Of Agriculture and Univ. Of Nairobi",
    "Actor":"Estate Producers",
    "Location accuracy":"Proximity",
    "Location notes":"",
    "Location source":"WMS"
    }
  },
  {
    "type": "Feature",
    "geometry": {
       "type": "Point",
       "coordinates":  [ 36.84871622,-1.18000185 ]
    },
    "properties": {
    "id":7447,
    "cbk_growers_code":"AA.0018",
    "producer_name":"Fairview Estate",
    "Actor":"coop",
    "Location accuracy":"Verified",
    "Location notes":"",
    "Location source":"WMS"
    }
  },
  {
    "type": "Feature",
    "geometry": {
       "type": "Point",
       "coordinates":  [ 36.9931256,-0.4929443 ]
    },
    "properties": {
    "id":8845,
    "cbk_growers_code":"XAC36",
    "producer_name":"Gaaki central",
    "Actor":"Cooperative Society",
    "Location accuracy":"Proximity",
    "Location notes":"",
    "Location source":"Sublocation"
    }
  },
  {
    "type": "Feature",
    "geometry": {
       "type": "Point",
       "coordinates":  [ 36.94474981,-0.52452714 ]
    },
    "properties": {
    "id":8958,
    "cbk_growers_code":"XAD03F08",
    "producer_name":"Gachami Factory",
    "Actor":"Factory",
    "Location accuracy":"Verified",
    "Location notes":"",
    "Location source":"WMS"
    }
  },
  {
    "type": "Feature",
    "geometry": {
       "type": "Point",
       "coordinates":  [ 36.94469333,-0.489456667 ]
    },
    "properties": {
    "id":8839,
    "cbk_growers_code":"XAC29",
    "producer_name":"Gachatha F.C.S. Ltd",
    "Actor":"coop",
    "Location accuracy":"good",
    "Location notes":"LimeSurvey",
    "Location source":"Lee Karimi"
    }
  },
  {
    "type": "Feature",
    "geometry": {
       "type": "Point",
       "coordinates":  [ 36.82432391,-1.006629197 ]
    },
    "properties": {
    "id":8576,
    "cbk_growers_code":"XAA27F01",
    "producer_name":"Gachika Factory",
    "Actor":"Factory",
    "Location accuracy":"Verified",
    "Location notes":"",
    "Location source":"WMS"
    }
  },
  {
    "type": "Feature",
    "geometry": {
       "type": "Point",
       "coordinates":  [ 37.0199039,-1.0899348 ]
    },
    "properties": {
    "id":7943,
    "cbk_growers_code":"AC.0020",
    "producer_name":"Gachororo and Gachororo F.Fc.Ltd",
    "Actor":"Estate Producers",
    "Location accuracy":"Proximity",
    "Location notes":"close",
    "Location source":"WMS"
    }
  },
  {
    "type": "Feature",
    "geometry": {
       "type": "Point",
       "coordinates":  [ 36.9166669,-0.949999999 ]
    },
    "properties": {
    "id":8037,
    "cbk_growers_code":"AG.0117",
    "producer_name":"Gachugi",
    "Actor":"Estate Producers",
    "Location accuracy":"Proximity",
    "Location notes":"close",
    "Location source":"WMS"
    }
  },
  {
    "type": "Feature",
    "geometry": {
       "type": "Point",
       "coordinates":  [ 37.10250564,-0.424804607 ]
    },
    "properties": {
    "id":8909,
    "cbk_growers_code":"XAC62F03",
    "producer_name":"Gachuiro Factory",
    "Actor":"Factory",
    "Location accuracy":"Verified",
    "Location notes":"",
    "Location source":"WMS"
    }
  },
  {
    "type": "Feature",
    "geometry": {
       "type": "Point",
       "coordinates":  [ 36.7105602,-1.109791695 ]
    },
    "properties": {
    "id":7743,
    "cbk_growers_code":"AB.0032",
    "producer_name":"Gacibi and Kibenda Estate Ltd",
    "Actor":"Estate Producers",
    "Location accuracy":"Proximity",
    "Location notes":"close",
    "Location source":"WMS"
    }
  },
  {
    "type": "Feature",
    "geometry": {
       "type": "Point",
       "coordinates":  [ 37.0493303,-0.8713633 ]
    },
    "properties": {
    "id":7994,
    "cbk_growers_code":"AE.0008",
    "producer_name":"Gaichajiru",
    "Actor":"Estate Producers",
    "Location accuracy":"Proximity",
    "Location notes":"",
    "Location source":"Ward"
    }
  },
  {
    "type": "Feature",
    "geometry": {
       "type": "Point",
       "coordinates":  [ 37.00114,-0.54 ]
    },
    "properties": {
    "id":8890,
    "cbk_growers_code":"XAC59F07",
    "producer_name":"Gaikundo Factory",
    "Actor":"Factory",
    "Location accuracy":"Proximity",
    "Location notes":"",
    "Location source":"Kenya Schools"
    }
  },
  {
    "type": "Feature",
    "geometry": {
       "type": "Point",
       "coordinates":  [ 36.99799215,-0.89424073 ]
    },
    "properties": {
    "id":8610,
    "cbk_growers_code":"XAB06F01",
    "producer_name":"Gakarara Factory",
    "Actor":"Factory",
    "Location accuracy":"Verified",
    "Location notes":"",
    "Location source":"WMS"
    }
  },
  {
    "type": "Feature",
    "geometry": {
       "type": "Point",
       "coordinates":  [ 36.99147,-0.495 ]
    },
    "properties": {
    "id":8856,
    "cbk_growers_code":"XAC55F04",
    "producer_name":"Gakii Central Factory",
    "Actor":"Factory",
    "Location accuracy":"Proximity",
    "Location notes":"",
    "Location source":"Kenya Schools"
    }
  },
  {
    "type": "Feature",
    "geometry": {
       "type": "Point",
       "coordinates":  [ 37.46845225,-0.440761529 ]
    },
    "properties": {
    "id":9302,
    "cbk_growers_code":"XBD04F04",
    "producer_name":"Gakui Factory (Gakundu)",
    "Actor":"Factory",
    "Location accuracy":"Proximity",
    "Location notes":"close",
    "Location source":"WMS"
    }
  },
  {
    "type": "Feature",
    "geometry": {
       "type": "Point",
       "coordinates":  [ 36.98226,-0.85547 ]
    },
    "properties": {
    "id":8616,
    "cbk_growers_code":"XAB06F07",
    "producer_name":"Gakui Factory (Kandara C.G.C.S. Ltd)",
    "Actor":"Factory",
    "Location accuracy":"Proximity",
    "Location notes":"Disambiguation",
    "Location source":"Kenya Schools"
    }
  },
  {
    "type": "Feature",
    "geometry": {
       "type": "Point",
       "coordinates":  [ 36.98226,-0.85547 ]
    },
    "properties": {
    "id":8788,
    "cbk_growers_code":"XAB96F01",
    "producer_name":"Gakui Factory?",
    "Actor":"Factory",
    "Location accuracy":"Proximity",
    "Location notes":"Disambiguation",
    "Location source":"Kenya Schools"
    }
  },
  {
    "type": "Feature",
    "geometry": {
       "type": "Point",
       "coordinates":  [ 37.46829429,-0.440521312 ]
    },
    "properties": {
    "id":9298,
    "cbk_growers_code":"XBD04",
    "producer_name":"Gakundu F.C.S. Ltd",
    "Actor":"Cooperative Society",
    "Location accuracy":"Verified",
    "Location notes":"",
    "Location source":"WMS"
    }
  },
  {
    "type": "Feature",
    "geometry": {
       "type": "Point",
       "coordinates":  [ 37.46829429,-0.440521312 ]
    },
    "properties": {
    "id":9299,
    "cbk_growers_code":"XBD04F01",
    "producer_name":"Gakundu Factory",
    "Actor":"Factory",
    "Location accuracy":"Verified",
    "Location notes":"",
    "Location source":"WMS"
    }
  },
  {
    "type": "Feature",
    "geometry": {
       "type": "Point",
       "coordinates":  [ 37.67276741,-0.018903799 ]
    },
    "properties": {
    "id":9127,
    "cbk_growers_code":"XBB22F02",
    "producer_name":"Gakungugugu Factory",
    "Actor":"Factory",
    "Location accuracy":"Verified",
    "Location notes":"",
    "Location source":"WMS"
    }
  },
  {
    "type": "Feature",
    "geometry": {
       "type": "Point",
       "coordinates":  [ 36.95736,-0.95828 ]
    },
    "properties": {
    "id":8699,
    "cbk_growers_code":"XAB40F02",
    "producer_name":"Gakurari Factory",
    "Actor":"Factory",
    "Location accuracy":"Proximity",
    "Location notes":"",
    "Location source":"Kenya Schools"
    }
  },
  {
    "type": "Feature",
    "geometry": {
       "type": "Point",
       "coordinates":  [ 37.34921552,-0.558975538 ]
    },
    "properties": {
    "id":9248,
    "cbk_growers_code":"XBC23F03",
    "producer_name":"Gakuu Factory",
    "Actor":"Factory",
    "Location accuracy":"Proximity",
    "Location notes":"",
    "Location source":"WMS"
    }
  },
  {
    "type": "Feature",
    "geometry": {
       "type": "Point",
       "coordinates":  [ 37.14181,-0.54486 ]
    },
    "properties": {
    "id":8812,
    "cbk_growers_code":"XAC07",
    "producer_name":"Gakuyu F.C.S. Ltd",
    "Actor":"Cooperative Society",
    "Location accuracy":"Proximity",
    "Location notes":"",
    "Location source":"Kenya Schools"
    }
  },
  {
    "type": "Feature",
    "geometry": {
       "type": "Point",
       "coordinates":  [ 37.3805939,-0.4626415 ]
    },
    "properties": {
    "id":9009,
    "cbk_growers_code":"XAD16F01",
    "producer_name":"Gakuyu-Ini Factory",
    "Actor":"Factory",
    "Location accuracy":"Verified",
    "Location notes":"",
    "Location source":"WMS"
    }
  },
  {
    "type": "Feature",
    "geometry": {
       "type": "Point",
       "coordinates":  [ 37.5900006,-0.4173266 ]
    },
    "properties": {
    "id":9324,
    "cbk_growers_code":"XBD11F01",
    "producer_name":"Gakwegori Factory",
    "Actor":"Factory",
    "Location accuracy":"Proximity",
    "Location notes":"",
    "Location source":"WMS"
    }
  },
  {
    "type": "Feature",
    "geometry": {
       "type": "Point",
       "coordinates":  [ 36.32175,-0.3015 ]
    },
    "properties": {
    "id":7665,
    "cbk_growers_code":"AA.0720",
    "producer_name":"Gatarwa Farm",
    "Actor":"Small Estates",
    "Location accuracy":"Proximity",
    "Location notes":"",
    "Location source":"Kenya Schools"
    }
  },
  {
    "type": "Feature",
    "geometry": {
       "type": "Point",
       "coordinates":  [ 36.76065,-1.128116667 ]
    },
    "properties": {
    "id":8337,
    "cbk_growers_code":"CB.0023",
    "producer_name":"Gatatha Farmers and Gatatha Farmers Company Ltd",
    "Actor":"Estate Producers",
    "Location accuracy":"Verified",
    "Location notes":"",
    "Location source":"WMS"
    }
  },
  {
    "type": "Feature",
    "geometry": {
       "type": "Point",
       "coordinates":  [ 36.8799708,-0.9659798 ]
    },
    "properties": {
    "id":7832,
    "cbk_growers_code":"AB.0419",
    "producer_name":"Gatei Farm",
    "Actor":"Small Estates",
    "Location accuracy":"Proximity",
    "Location notes":"",
    "Location source":"Sublocation"
    }
  },
  {
    "type": "Feature",
    "geometry": {
       "type": "Point",
       "coordinates":  [ 36.888332,-1.0394134 ]
    },
    "properties": {
    "id":8544,
    "cbk_growers_code":"XAA12",
    "producer_name":"Gathage F.C.S Ltd",
    "Actor":"Cooperative Society",
    "Location accuracy":"Proximity",
    "Location notes":"",
    "Location source":"Sublocation"
    }
  },
  {
    "type": "Feature",
    "geometry": {
       "type": "Point",
       "coordinates":  [ 36.888332,-1.0394134 ]
    },
    "properties": {
    "id":8545,
    "cbk_growers_code":"XAA12F01",
    "producer_name":"Gathage Factory",
    "Actor":"Factory",
    "Location accuracy":"Proximity",
    "Location notes":"",
    "Location source":"Sublocation"
    }
  },
  {
    "type": "Feature",
    "geometry": {
       "type": "Point",
       "coordinates":  [ 37.0026764,-0.510271222 ]
    },
    "properties": {
    "id":8843,
    "cbk_growers_code":"XAC34",
    "producer_name":"Gathaithi F.C.S. Ltd",
    "Actor":"Cooperative Society",
    "Location accuracy":"Verified",
    "Location notes":"",
    "Location source":"WMS"
    }
  },
  {
    "type": "Feature",
    "geometry": {
       "type": "Point",
       "coordinates":  [ 37.0026764,-0.510271222 ]
    },
    "properties": {
    "id":8844,
    "cbk_growers_code":"XAC34F01",
    "producer_name":"Gathaithi Factory1",
    "Actor":"Factory",
    "Location accuracy":"Verified",
    "Location notes":"",
    "Location source":"WMS"
    }
  },
  {
    "type": "Feature",
    "geometry": {
       "type": "Point",
       "coordinates":  [ 37.0026764,-0.510271222 ]
    },
    "properties": {
    "id":8840,
    "cbk_growers_code":"XAC31F01",
    "producer_name":"Gathaithi Factory2",
    "Actor":"Factory",
    "Location accuracy":"Verified",
    "Location notes":"",
    "Location source":"WMS"
    }
  },
  {
    "type": "Feature",
    "geometry": {
       "type": "Point",
       "coordinates":  [ 37.21142,-0.47015 ]
    },
    "properties": {
    "id":8975,
    "cbk_growers_code":"XAD06F04",
    "producer_name":"Gathambi Factory",
    "Actor":"Factory",
    "Location accuracy":"Proximity",
    "Location notes":"",
    "Location source":"Kenya Schools"
    }
  },
  {
    "type": "Feature",
    "geometry": {
       "type": "Point",
       "coordinates":  [ 36.78298884,-1.085467872 ]
    },
    "properties": {
    "id":8715,
    "cbk_growers_code":"XAB43F03",
    "producer_name":"Gathanji Factory",
    "Actor":"Factory",
    "Location accuracy":"Verified",
    "Location notes":"Gititu Gathanje vs Gititu",
    "Location source":"WMS"
    }
  },
  {
    "type": "Feature",
    "geometry": {
       "type": "Point",
       "coordinates":  [ 36.74889,-1.22056 ]
    },
    "properties": {
    "id":8617,
    "cbk_growers_code":"XAB06F08",
    "producer_name":"Gathiga Factory*",
    "Actor":"Factory",
    "Location accuracy":"Proximity",
    "Location notes":"",
    "Location source":"Kenya Schools"
    }
  },
  {
    "type": "Feature",
    "geometry": {
       "type": "Point",
       "coordinates":  [ 36.74889,-1.22056 ]
    },
    "properties": {
    "id":8784,
    "cbk_growers_code":"XAB94F01",
    "producer_name":"Gathiga Factory*",
    "Actor":"Factory",
    "Location accuracy":"Proximity",
    "Location notes":"",
    "Location source":"Kenya Schools"
    }
  },
  {
    "type": "Feature",
    "geometry": {
       "type": "Point",
       "coordinates":  [ 37.01497,-0.71192 ]
    },
    "properties": {
    "id":8626,
    "cbk_growers_code":"XAB12F05",
    "producer_name":"Gathinja Factory",
    "Actor":"Factory",
    "Location accuracy":"Proximity",
    "Location notes":"",
    "Location source":"Kenya Schools"
    }
  },
  {
    "type": "Feature",
    "geometry": {
       "type": "Point",
       "coordinates":  [ 36.74728,-0.95075 ]
    },
    "properties": {
    "id":7753,
    "cbk_growers_code":"AB.0056",
    "producer_name":"Gathiru Estate : Central Kenya Ltd",
    "Actor":"Estate Producers",
    "Location accuracy":"Proximity",
    "Location notes":"",
    "Location source":"Kenya Schools"
    }
  },
  {
    "type": "Feature",
    "geometry": {
       "type": "Point",
       "coordinates":  [ 36.81953764,-1.028764639 ]
    },
    "properties": {
    "id":8523,
    "cbk_growers_code":"XAA03F02",
    "producer_name":"Gathiruini Factory",
    "Actor":"Factory",
    "Location accuracy":"Verified",
    "Location notes":"",
    "Location source":"WMS"
    }
  },
  {
    "type": "Feature",
    "geometry": {
       "type": "Point",
       "coordinates":  [ 37.06116386,-0.566769649 ]
    },
    "properties": {
    "id":8061,
    "cbk_growers_code":"AG.0230",
    "producer_name":"Gathitu",
    "Actor":"Estate Producers",
    "Location accuracy":"Proximity",
    "Location notes":"close",
    "Location source":"WMS"
    }
  },
  {
    "type": "Feature",
    "geometry": {
       "type": "Point",
       "coordinates":  [ 37.10271245,-0.523504415 ]
    },
    "properties": {
    "id":8922,
    "cbk_growers_code":"XAC64F04",
    "producer_name":"Gathugu Factory",
    "Actor":"Factory",
    "Location accuracy":"Verified",
    "Location notes":"",
    "Location source":"WMS"
    }
  },
  {
    "type": "Feature",
    "geometry": {
       "type": "Point",
       "coordinates":  [ 36.7547124,-1.2795903 ]
    },
    "properties": {
    "id":8923,
    "cbk_growers_code":"XAC64F05",
    "producer_name":"Gatina Factory",
    "Actor":"Factory",
    "Location accuracy":"Proximity",
    "Location notes":"",
    "Location source":"Ward"
    }
  },
  {
    "type": "Feature",
    "geometry": {
       "type": "Point",
       "coordinates":  [ 37.16581,-0.43336 ]
    },
    "properties": {
    "id":9351,
    "cbk_growers_code":"XBD19F01",
    "producer_name":"Gatondo Factory",
    "Actor":"Factory",
    "Location accuracy":"Proximity",
    "Location notes":"",
    "Location source":"Kenya Schools"
    }
  },
  {
    "type": "Feature",
    "geometry": {
       "type": "Point",
       "coordinates":  [ 37.6362712,-0.2991606 ]
    },
    "properties": {
    "id":7633,
    "cbk_growers_code":"AA.0604",
    "producer_name":"Gatua",
    "Actor":"Estate Producers",
    "Location accuracy":"Proximity",
    "Location notes":"",
    "Location source":"Sublocation"
    }
  },
  {
    "type": "Feature",
    "geometry": {
       "type": "Point",
       "coordinates":  [ 36.96178465,-0.529180236 ]
    },
    "properties": {
    "id":8803,
    "cbk_growers_code":"XAC04F12",
    "producer_name":"Gatugi Factory",
    "Actor":"Factory",
    "Location accuracy":"Verified",
    "Location notes":"",
    "Location source":"WMS"
    }
  },
  {
    "type": "Feature",
    "geometry": {
       "type": "Point",
       "coordinates":  [ 36.9668298,-0.9943289 ]
    },
    "properties": {
    "id":8588,
    "cbk_growers_code":"XAA31F01",
    "producer_name":"Gatukuyu Factory",
    "Actor":"Factory",
    "Location accuracy":"Proximity",
    "Location notes":"",
    "Location source":"Sublocation"
    }
  },
  {
    "type": "Feature",
    "geometry": {
       "type": "Point",
       "coordinates":  [ 36.90221357,-1.00813264 ]
    },
    "properties": {
    "id":8553,
    "cbk_growers_code":"XAA18F01",
    "producer_name":"Gatundu Factory",
    "Actor":"Factory",
    "Location accuracy":"Proximity",
    "Location notes":"",
    "Location source":"Town"
    }
  },
  {
    "type": "Feature",
    "geometry": {
       "type": "Point",
       "coordinates":  [ 37.4952366,-0.5073878 ]
    },
    "properties": {
    "id":9340,
    "cbk_growers_code":"XBD15F02",
    "producer_name":"Gatunduri Factory",
    "Actor":"Factory",
    "Location accuracy":"Proximity",
    "Location notes":"",
    "Location source":"Sublocation"
    }
  },
  {
    "type": "Feature",
    "geometry": {
       "type": "Point",
       "coordinates":  [ 37.03580631,-0.834003157 ]
    },
    "properties": {
    "id":8779,
    "cbk_growers_code":"XAB91F03",
    "producer_name":"Gatune Factory",
    "Actor":"Factory",
    "Location accuracy":"Verified",
    "Location notes":"",
    "Location source":"WMS"
    }
  },
  {
    "type": "Feature",
    "geometry": {
       "type": "Point",
       "coordinates":  [ 36.98561,-0.95481 ]
    },
    "properties": {
    "id":8697,
    "cbk_growers_code":"XAB40",
    "producer_name":"Gatunyu Kigio F.C.S Ltd",
    "Actor":"Cooperative Society",
    "Location accuracy":"Proximity",
    "Location notes":"",
    "Location source":"Kenya Schools"
    }
  },
  {
    "type": "Feature",
    "geometry": {
       "type": "Point",
       "coordinates":  [ 37.0499418,-0.5592581 ]
    },
    "properties": {
    "id":8885,
    "cbk_growers_code":"XAC59F02",
    "producer_name":"Gatura Factory",
    "Actor":"Factory",
    "Location accuracy":"Proximity",
    "Location notes":"",
    "Location source":"Sublocation"
    }
  },
  {
    "type": "Feature",
    "geometry": {
       "type": "Point",
       "coordinates":  [ 37.62655743,-0.142909798 ]
    },
    "properties": {
    "id":9192,
    "cbk_growers_code":"XBB70F02",
    "producer_name":"Gaturine Factory",
    "Actor":"Factory",
    "Location accuracy":"Proximity",
    "Location notes":"close",
    "Location source":"WMS"
    }
  },
  {
    "type": "Feature",
    "geometry": {
       "type": "Point",
       "coordinates":  [ 36.9703831,-0.7352712 ]
    },
    "properties": {
    "id":8974,
    "cbk_growers_code":"XAD06F03",
    "producer_name":"Gatuya Factory (Mwirua F.C.S. Ltd)",
    "Actor":"Factory",
    "Location accuracy":"Proximity",
    "Location notes":"",
    "Location source":"Sublocation"
    }
  },
  {
    "type": "Feature",
    "geometry": {
       "type": "Point",
       "coordinates":  [ 36.1311793,-0.1077067 ]
    },
    "properties": {
    "id":8306,
    "cbk_growers_code":"CA.0008",
    "producer_name":"Gb Solai and Milmet Estate Ltd",
    "Actor":"Estate Producers",
    "Location accuracy":"Proximity",
    "Location notes":"close",
    "Location source":"WMS"
    }
  },
  {
    "type": "Feature",
    "geometry": {
       "type": "Point",
       "coordinates":  [ 37.22647,-0.51888 ]
    },
    "properties": {
    "id":10028,
    "cbk_growers_code":"XAD06FXX",
    "producer_name":"Getuya",
    "Actor":"Factory",
    "Location accuracy":"Proximity",
    "Location notes":"",
    "Location source":"Kenya Schools"
    }
  },
  {
    "type": "Feature",
    "geometry": {
       "type": "Point",
       "coordinates":  [ 36.94158669,-0.45875949 ]
    },
    "properties": {
    "id":8841,
    "cbk_growers_code":"XAC32",
    "producer_name":"Giakanja F.C.S. Ltd",
    "Actor":"Cooperative Society",
    "Location accuracy":"Proximity",
    "Location notes":"",
    "Location source":"Town"
    }
  },
  {
    "type": "Feature",
    "geometry": {
       "type": "Point",
       "coordinates":  [ 36.94158669,-0.45875949 ]
    },
    "properties": {
    "id":8842,
    "cbk_growers_code":"XAC32F01",
    "producer_name":"Giakanja Factory",
    "Actor":"Factory",
    "Location accuracy":"Proximity",
    "Location notes":"",
    "Location source":"Town"
    }
  },
  {
    "type": "Feature",
    "geometry": {
       "type": "Point",
       "coordinates":  [ 37.08908,-0.58117 ]
    },
    "properties": {
    "id":8869,
    "cbk_growers_code":"XAC57F03",
    "producer_name":"Giathugu Factory",
    "Actor":"Factory",
    "Location accuracy":"Proximity",
    "Location notes":"",
    "Location source":"Kenya Schools"
    }
  },
  {
    "type": "Feature",
    "geometry": {
       "type": "Point",
       "coordinates":  [ 37.4314955,-0.4340014 ]
    },
    "properties": {
    "id":9292,
    "cbk_growers_code":"XBD01F05",
    "producer_name":"Gicherori Factory",
    "Actor":"Factory",
    "Location accuracy":"Proximity",
    "Location notes":"",
    "Location source":"WMS"
    }
  },
  {
    "type": "Feature",
    "geometry": {
       "type": "Point",
       "coordinates":  [ 36.9265286,-0.579412737 ]
    },
    "properties": {
    "id":8801,
    "cbk_growers_code":"XAC04F10",
    "producer_name":"Gichichi Factory",
    "Actor":"Factory",
    "Location accuracy":"Verified",
    "Location notes":"Gichiche vs Gichichi",
    "Location source":"WMS"
    }
  },
  {
    "type": "Feature",
    "geometry": {
       "type": "Point",
       "coordinates":  [ 37.4815803,-0.4081295 ]
    },
    "properties": {
    "id":9301,
    "cbk_growers_code":"XBD04F03",
    "producer_name":"Gichugu Factory",
    "Actor":"Factory",
    "Location accuracy":"Proximity",
    "Location notes":"",
    "Location source":"WMS"
    }
  },
  {
    "type": "Feature",
    "geometry": {
       "type": "Point",
       "coordinates":  [ 37.44667262,-0.438636645 ]
    },
    "properties": {
    "id":9290,
    "cbk_growers_code":"XBD01F03",
    "producer_name":"Gikirima Factory",
    "Actor":"Factory",
    "Location accuracy":"Verified",
    "Location notes":"",
    "Location source":"WMS"
    }
  },
  {
    "type": "Feature",
    "geometry": {
       "type": "Point",
       "coordinates":  [ 37.68336306,-0.19780696 ]
    },
    "properties": {
    "id":9201,
    "cbk_growers_code":"XBB72F02",
    "producer_name":"Gikui Factory",
    "Actor":"Factory",
    "Location accuracy":"Proximity",
    "Location notes":"",
    "Location source":"WMS"
    }
  },
  {
    "type": "Feature",
    "geometry": {
       "type": "Point",
       "coordinates":  [ 37.5577096,-0.4401101 ]
    },
    "properties": {
    "id":9334,
    "cbk_growers_code":"XBD14F02",
    "producer_name":"Gikuuri Factory",
    "Actor":"Factory",
    "Location accuracy":"Proximity",
    "Location notes":"",
    "Location source":"Sublocation"
    }
  },
  {
    "type": "Feature",
    "geometry": {
       "type": "Point",
       "coordinates":  [ 34.8673987,-0.7230012 ]
    },
    "properties": {
    "id":9837,
    "cbk_growers_code":"XEA19",
    "producer_name":"Girango F.C.S. Ltd",
    "Actor":"Cooperative Society",
    "Location accuracy":"Proximity",
    "Location notes":"",
    "Location source":"Sublocation"
    }
  },
  {
    "type": "Feature",
    "geometry": {
       "type": "Point",
       "coordinates":  [ 34.8673987,-0.7230012 ]
    },
    "properties": {
    "id":9838,
    "cbk_growers_code":"XEA19F01",
    "producer_name":"Girango Factory",
    "Actor":"Factory",
    "Location accuracy":"Proximity",
    "Location notes":"",
    "Location source":"Sublocation"
    }
  },
  {
    "type": "Feature",
    "geometry": {
       "type": "Point",
       "coordinates":  [ 36.82129775,-0.998089168 ]
    },
    "properties": {
    "id":8577,
    "cbk_growers_code":"XAA27F02",
    "producer_name":"Gitare Factory",
    "Actor":"Factory",
    "Location accuracy":"Verified",
    "Location notes":"",
    "Location source":"WMS"
    }
  },
  {
    "type": "Feature",
    "geometry": {
       "type": "Point",
       "coordinates":  [ 37.7013053,-0.3862289 ]
    },
    "properties": {
    "id":9242,
    "cbk_growers_code":"XBC22",
    "producer_name":"Gitareni F.C.S. Ltd",
    "Actor":"Cooperative Society",
    "Location accuracy":"Proximity",
    "Location notes":"",
    "Location source":"Sublocation"
    }
  },
  {
    "type": "Feature",
    "geometry": {
       "type": "Point",
       "coordinates":  [ 36.951,-0.89786 ]
    },
    "properties": {
    "id":7834,
    "cbk_growers_code":"AB.0425",
    "producer_name":"Githambia Estate",
    "Actor":"Small Estates",
    "Location accuracy":"Proximity",
    "Location notes":"",
    "Location source":"Kenya Schools"
    }
  },
  {
    "type": "Feature",
    "geometry": {
       "type": "Point",
       "coordinates":  [ 36.85407256,-0.992824113 ]
    },
    "properties": {
    "id":8569,
    "cbk_growers_code":"XAA25F02",
    "producer_name":"Githembe Factory",
    "Actor":"Factory",
    "Location accuracy":"Verified",
    "Location notes":"",
    "Location source":"WMS"
    }
  },
  {
    "type": "Feature",
    "geometry": {
       "type": "Point",
       "coordinates":  [ 37.10908381,-0.49177513 ]
    },
    "properties": {
    "id":8905,
    "cbk_growers_code":"XAC61F08",
    "producer_name":"Githima Factory (Rutuma F.C.S. Ltd)",
    "Actor":"Factory",
    "Location accuracy":"Verified",
    "Location notes":"",
    "Location source":"WMS"
    }
  },
  {
    "type": "Feature",
    "geometry": {
       "type": "Point",
       "coordinates":  [ 37.10908381,-0.49177513 ]
    },
    "properties": {
    "id":8657,
    "cbk_growers_code":"XAB20F04",
    "producer_name":"Githima Factory (Thanga-ini C.G.C.S. Ltd)",
    "Actor":"Factory",
    "Location accuracy":"Verified",
    "Location notes":"",
    "Location source":"WMS"
    }
  },
  {
    "type": "Feature",
    "geometry": {
       "type": "Point",
       "coordinates":  [ 37.01516315,-0.449845509 ]
    },
    "properties": {
    "id":8833,
    "cbk_growers_code":"XAC24",
    "producer_name":"Githiru F.C.S. Ltd",
    "Actor":"Cooperative Society",
    "Location accuracy":"Verified",
    "Location notes":"",
    "Location source":"WMS"
    }
  },
  {
    "type": "Feature",
    "geometry": {
       "type": "Point",
       "coordinates":  [ 37.01516315,-0.449845509 ]
    },
    "properties": {
    "id":8834,
    "cbk_growers_code":"XAC24F01",
    "producer_name":"Githiru Factory",
    "Actor":"Factory",
    "Location accuracy":"Verified",
    "Location notes":"",
    "Location source":"WMS"
    }
  },
  {
    "type": "Feature",
    "geometry": {
       "type": "Point",
       "coordinates":  [ 36.88180146,-0.95163024 ]
    },
    "properties": {
    "id":8597,
    "cbk_growers_code":"XAA31F10",
    "producer_name":"Githobokoni Factory",
    "Actor":"Factory",
    "Location accuracy":"Verified",
    "Location notes":"",
    "Location source":"WMS"
    }
  },
  {
    "type": "Feature",
    "geometry": {
       "type": "Point",
       "coordinates":  [ 37.59055501,-0.002333711 ]
    },
    "properties": {
    "id":9107,
    "cbk_growers_code":"XBB10F01",
    "producer_name":"Githongo Factory (Mariara F.C.S Ltd)",
    "Actor":"Factory",
    "Location accuracy":"Proximity",
    "Location notes":"",
    "Location source":"Town"
    }
  },
  {
    "type": "Feature",
    "geometry": {
       "type": "Point",
       "coordinates":  [ 36.88180146,-0.95163024 ]
    },
    "properties": {
    "id":7649,
    "cbk_growers_code":"AA.0658B",
    "producer_name":"Githubukoni Farm",
    "Actor":"Small Estates",
    "Location accuracy":"Verified",
    "Location notes":"",
    "Location source":"WMS"
    }
  },
  {
    "type": "Feature",
    "geometry": {
       "type": "Point",
       "coordinates":  [ 36.82517661,-1.093626079 ]
    },
    "properties": {
    "id":8505,
    "cbk_growers_code":"XAA01",
    "producer_name":"Gititu F.C.S. Ltd",
    "Actor":"Cooperative Society",
    "Location accuracy":"Verified",
    "Location notes":"",
    "Location source":"WMS"
    }
  },
  {
    "type": "Feature",
    "geometry": {
       "type": "Point",
       "coordinates":  [ 36.82517661,-1.093626079 ]
    },
    "properties": {
    "id":8506,
    "cbk_growers_code":"XAA01F01",
    "producer_name":"Gititu Factory (Kiambu)",
    "Actor":"Factory",
    "Location accuracy":"Verified",
    "Location notes":"",
    "Location source":"WMS"
    }
  },
  {
    "type": "Feature",
    "geometry": {
       "type": "Point",
       "coordinates":  [ 37.49506708,-0.398259572 ]
    },
    "properties": {
    "id":9311,
    "cbk_growers_code":"XBD06F03",
    "producer_name":"Gituara Factory",
    "Actor":"Factory",
    "Location accuracy":"Verified",
    "Location notes":"",
    "Location source":"WMS"
    }
  },
  {
    "type": "Feature",
    "geometry": {
       "type": "Point",
       "coordinates":  [ 37.02271021,-0.825022816 ]
    },
    "properties": {
    "id":9080,
    "cbk_growers_code":"XBB05F02",
    "producer_name":"Gitugu Factory",
    "Actor":"Factory",
    "Location accuracy":"Verified",
    "Location notes":"",
    "Location source":"WMS"
    }
  },
  {
    "type": "Feature",
    "geometry": {
       "type": "Point",
       "coordinates":  [ 36.9246408,-0.5610632 ]
    },
    "properties": {
    "id":8810,
    "cbk_growers_code":"XAC04F19",
    "producer_name":"Gitundu Factory",
    "Actor":"Factory",
    "Location accuracy":"Proximity",
    "Location notes":"",
    "Location source":"Sublocation"
    }
  },
  {
    "type": "Feature",
    "geometry": {
       "type": "Point",
       "coordinates":  [ 36.95947,-0.73619 ]
    },
    "properties": {
    "id":8636,
    "cbk_growers_code":"XAB13F08",
    "producer_name":"Gitura Factory",
    "Actor":"Factory",
    "Location accuracy":"Proximity",
    "Location notes":"",
    "Location source":"Kenya Schools"
    }
  },
  {
    "type": "Feature",
    "geometry": {
       "type": "Point",
       "coordinates":  [ 37.1550034,-0.6546482 ]
    },
    "properties": {
    "id":7905,
    "cbk_growers_code":"AB.0642",
    "producer_name":"Gituri Estate",
    "Actor":"Small Estates",
    "Location accuracy":"Proximity",
    "Location notes":"Disambiguation, Muranga vs Kiambu",
    "Location source":"WMS"
    }
  },
  {
    "type": "Feature",
    "geometry": {
       "type": "Point",
       "coordinates":  [ 37.1550034,-0.6546482 ]
    },
    "properties": {
    "id":7492,
    "cbk_growers_code":"AA.0180B",
    "producer_name":"Gituri Farm",
    "Actor":"Estate Producers",
    "Location accuracy":"Proximity",
    "Location notes":"Disambiguation, Muranga vs Kiambu",
    "Location source":"WMS"
    }
  },
  {
    "type": "Feature",
    "geometry": {
       "type": "Point",
       "coordinates":  [ 36.87039,-0.82086 ]
    },
    "properties": {
    "id":8159,
    "cbk_growers_code":"AJ.0279",
    "producer_name":"Gituru",
    "Actor":"Estate Producers",
    "Location accuracy":"Proximity",
    "Location notes":"",
    "Location source":"Kenya Schools"
    }
  },
  {
    "type": "Feature",
    "geometry": {
       "type": "Point",
       "coordinates":  [ 37.4022494,-0.532233684 ]
    },
    "properties": {
    "id":9020,
    "cbk_growers_code":"XAD20F01",
    "producer_name":"Gituto Factory",
    "Actor":"Factory",
    "Location accuracy":"Verified",
    "Location notes":"",
    "Location source":"WMS"
    }
  },
  {
    "type": "Feature",
    "geometry": {
       "type": "Point",
       "coordinates":  [ 36.73944,-1.06222 ]
    },
    "properties": {
    "id":8555,
    "cbk_growers_code":"XAA19",
    "producer_name":"Gitwe F.C.S Ltd",
    "Actor":"Cooperative Society",
    "Location accuracy":"Proximity",
    "Location notes":"",
    "Location source":"Kenya Schools"
    }
  },
  {
    "type": "Feature",
    "geometry": {
       "type": "Point",
       "coordinates":  [ 36.94757943,-0.649730778 ]
    },
    "properties": {
    "id":8748,
    "cbk_growers_code":"XAB72F02",
    "producer_name":"Gondo Factory",
    "Actor":"Factory",
    "Location accuracy":"Verified",
    "Location notes":"",
    "Location source":"WMS"
    }
  },
  {
    "type": "Feature",
    "geometry": {
       "type": "Point",
       "coordinates":  [ 37.3293116,-0.4420254 ]
    },
    "properties": {
    "id":8957,
    "cbk_growers_code":"XAD03F07",
    "producer_name":"Guama Factory",
    "Actor":"Factory",
    "Location accuracy":"Proximity",
    "Location notes":"",
    "Location source":"Sublocation"
    }
  },
  {
    "type": "Feature",
    "geometry": {
       "type": "Point",
       "coordinates":  [ 36.9807403,-0.5237306 ]
    },
    "properties": {
    "id":8806,
    "cbk_growers_code":"XAC04F15",
    "producer_name":"Gura Factory",
    "Actor":"Factory",
    "Location accuracy":"Proximity",
    "Location notes":"",
    "Location source":"Sublocation"
    }
  },
  {
    "type": "Feature",
    "geometry": {
       "type": "Point",
       "coordinates":  [ 36.87223452,-1.000724536 ]
    },
    "properties": {
    "id":8560,
    "cbk_growers_code":"XAA20F01",
    "producer_name":"Handege Factory",
    "Actor":"Factory",
    "Location accuracy":"Verified",
    "Location notes":"",
    "Location source":"WMS"
    }
  },
  {
    "type": "Feature",
    "geometry": {
       "type": "Point",
       "coordinates":  [ 37.05322,-0.38911 ]
    },
    "properties": {
    "id":8916,
    "cbk_growers_code":"XAC63F04",
    "producer_name":"Hiriga Factory",
    "Actor":"Factory",
    "Location accuracy":"Proximity",
    "Location notes":"",
    "Location source":"Kenya Schools"
    }
  },
  {
    "type": "Feature",
    "geometry": {
       "type": "Point",
       "coordinates":  [ 36.8195,-1.181683333 ]
    },
    "properties": {
    "id":7440,
    "cbk_growers_code":"AA.0001",
    "producer_name":"Ibonia and Shanbrook Ltd",
    "Actor":"coop",
    "Location accuracy":"Verified",
    "Location notes":"",
    "Location source":"WMS"
    }
  },
  {
    "type": "Feature",
    "geometry": {
       "type": "Point",
       "coordinates":  [ 37.0847,-0.80948 ]
    },
    "properties": {
    "id":8664,
    "cbk_growers_code":"XAB22F02",
    "producer_name":"Ichagaki Factory",
    "Actor":"Factory",
    "Location accuracy":"Proximity",
    "Location notes":"",
    "Location source":"Kenya Schools"
    }
  },
  {
    "type": "Feature",
    "geometry": {
       "type": "Point",
       "coordinates":  [ 37.1088949,-0.4460016 ]
    },
    "properties": {
    "id":8910,
    "cbk_growers_code":"XAC62F04",
    "producer_name":"Ichuga Factory",
    "Actor":"Factory",
    "Location accuracy":"Proximity",
    "Location notes":"",
    "Location source":"Sublocation"
    }
  },
  {
    "type": "Feature",
    "geometry": {
       "type": "Point",
       "coordinates":  [ 36.88377103,-0.91075914 ]
    },
    "properties": {
    "id":8566,
    "cbk_growers_code":"XAA24F03",
    "producer_name":"Igamba Factory*",
    "Actor":"Factory",
    "Location accuracy":"Verified",
    "Location notes":"",
    "Location source":"WMS"
    }
  },
  {
    "type": "Feature",
    "geometry": {
       "type": "Point",
       "coordinates":  [ 36.88377103,-0.91075914 ]
    },
    "properties": {
    "id":8602,
    "cbk_growers_code":"XAA31F15",
    "producer_name":"Igamba Factory*",
    "Actor":"Factory",
    "Location accuracy":"Verified",
    "Location notes":"",
    "Location source":"WMS"
    }
  },
  {
    "type": "Feature",
    "geometry": {
       "type": "Point",
       "coordinates":  [ 37.6363336,-0.1200104 ]
    },
    "properties": {
    "id":9191,
    "cbk_growers_code":"XBB70F01",
    "producer_name":"Igandene Factory",
    "Actor":"Factory",
    "Location accuracy":"Proximity",
    "Location notes":"",
    "Location source":"WMS"
    }
  },
  {
    "type": "Feature",
    "geometry": {
       "type": "Point",
       "coordinates":  [ 37.1881951,-0.8146611 ]
    },
    "properties": {
    "id":7959,
    "cbk_growers_code":"AC.0045",
    "producer_name":"Iganjo Farm",
    "Actor":"Estate Producers",
    "Location accuracy":"Proximity",
    "Location notes":"",
    "Location source":"Sublocation"
    }
  },
  {
    "type": "Feature",
    "geometry": {
       "type": "Point",
       "coordinates":  [ 34.8041338,-0.8046995 ]
    },
    "properties": {
    "id":9863,
    "cbk_growers_code":"XEA26F02",
    "producer_name":"Igare",
    "Actor":"Factory",
    "Location accuracy":"Proximity",
    "Location notes":"",
    "Location source":"Sublocation"
    }
  },
  {
    "type": "Feature",
    "geometry": {
       "type": "Point",
       "coordinates":  [ 36.92744,-0.98278 ]
    },
    "properties": {
    "id":8603,
    "cbk_growers_code":"XAA32F01",
    "producer_name":"Igegania",
    "Actor":"Factory",
    "Location accuracy":"Proximity",
    "Location notes":"",
    "Location source":"Kenya Schools"
    }
  },
  {
    "type": "Feature",
    "geometry": {
       "type": "Point",
       "coordinates":  [ 36.8269492,-0.543324 ]
    },
    "properties": {
    "id":7842,
    "cbk_growers_code":"AB.0455",
    "producer_name":"Ihuririo Farm",
    "Actor":"Small Estates",
    "Location accuracy":"Proximity",
    "Location notes":"",
    "Location source":"Sublocation"
    }
  },
  {
    "type": "Feature",
    "geometry": {
       "type": "Point",
       "coordinates":  [ 36.7910215,-1.1094864 ]
    },
    "properties": {
    "id":8509,
    "cbk_growers_code":"XAA01F04",
    "producer_name":"Ikinu Factory",
    "Actor":"Factory",
    "Location accuracy":"Proximity",
    "Location notes":"",
    "Location source":"Sublocation"
    }
  },
  {
    "type": "Feature",
    "geometry": {
       "type": "Point",
       "coordinates":  [ 37.3056201,-0.3366065 ]
    },
    "properties": {
    "id":8926,
    "cbk_growers_code":"XAD01",
    "producer_name":"Inoi F.C.S. Ltd",
    "Actor":"Cooperative Society",
    "Location accuracy":"Proximity",
    "Location notes":"",
    "Location source":"Ward"
    }
  },
  {
    "type": "Feature",
    "geometry": {
       "type": "Point",
       "coordinates":  [ 37.1633965,-0.4589729 ]
    },
    "properties": {
    "id":8824,
    "cbk_growers_code":"XAC18",
    "producer_name":"Iria-Ini F.C.S. Ltd",
    "Actor":"Cooperative Society",
    "Location accuracy":"Proximity",
    "Location notes":"",
    "Location source":"Ward"
    }
  },
  {
    "type": "Feature",
    "geometry": {
       "type": "Point",
       "coordinates":  [ 36.90999591,-0.543970945 ]
    },
    "properties": {
    "id":8802,
    "cbk_growers_code":"XAC04F11",
    "producer_name":"Iriaini Factory",
    "Actor":"Factory",
    "Location accuracy":"Verified",
    "Location notes":"",
    "Location source":"WMS"
    }
  },
  {
    "type": "Feature",
    "geometry": {
       "type": "Point",
       "coordinates":  [ 36.90999591,-0.543970945 ]
    },
    "properties": {
    "id":9230,
    "cbk_growers_code":"XBC18F03",
    "producer_name":"Iriani Factory",
    "Actor":"Factory",
    "Location accuracy":"Verified",
    "Location notes":"",
    "Location source":"WMS"
    }
  },
  {
    "type": "Feature",
    "geometry": {
       "type": "Point",
       "coordinates":  [ 37.6146126,-0.2695181 ]
    },
    "properties": {
    "id":9223,
    "cbk_growers_code":"XBC15F03",
    "producer_name":"Iriga Factory",
    "Actor":"Factory",
    "Location accuracy":"Proximity",
    "Location notes":"",
    "Location source":"WMS"
    }
  },
  {
    "type": "Feature",
    "geometry": {
       "type": "Point",
       "coordinates":  [ 36.96447681,-0.69932641 ]
    },
    "properties": {
    "id":7747,
    "cbk_growers_code":"AB.0044",
    "producer_name":"Irigithathi and Kangema Farmlands Ltd",
    "Actor":"Estate Producers",
    "Location accuracy":"Proximity",
    "Location notes":"close",
    "Location source":"WMS"
    }
  },
  {
    "type": "Feature",
    "geometry": {
       "type": "Point",
       "coordinates":  [ 36.9643331,-0.7968096 ]
    },
    "properties": {
    "id":8731,
    "cbk_growers_code":"XAB52F02",
    "producer_name":"Iriguini Factory",
    "Actor":"Factory",
    "Location accuracy":"Proximity",
    "Location notes":"",
    "Location source":"Sublocation"
    }
  },
  {
    "type": "Feature",
    "geometry": {
       "type": "Point",
       "coordinates":  [ 37.67902737,-0.220752675 ]
    },
    "properties": {
    "id":9280,
    "cbk_growers_code":"XBC37F01",
    "producer_name":"Iruma Factory",
    "Actor":"Factory",
    "Location accuracy":"Proximity",
    "Location notes":"",
    "Location source":"WMS"
    }
  },
  {
    "type": "Feature",
    "geometry": {
       "type": "Point",
       "coordinates":  [ 34.8239604,0.22472987 ]
    },
    "properties": {
    "id":9755,
    "cbk_growers_code":"XDB05F01",
    "producer_name":"Isukha Factory",
    "Actor":"Factory",
    "Location accuracy":"Proximity",
    "Location notes":"",
    "Location source":"Ward"
    }
  },
  {
    "type": "Feature",
    "geometry": {
       "type": "Point",
       "coordinates":  [ 34.8239604,0.22472987 ]
    },
    "properties": {
    "id":9758,
    "cbk_growers_code":"XDB17",
    "producer_name":"Isukha-Ivugwi F.C.S. Ltd",
    "Actor":"Cooperative Society",
    "Location accuracy":"Proximity",
    "Location notes":"",
    "Location source":"Ward"
    }
  },
  {
    "type": "Feature",
    "geometry": {
       "type": "Point",
       "coordinates":  [ 34.8239604,0.22472987 ]
    },
    "properties": {
    "id":9759,
    "cbk_growers_code":"XDB17B",
    "producer_name":"Isukha-Ivugwi F.C.S. Ltd B",
    "Actor":"Cooperative Society",
    "Location accuracy":"Proximity",
    "Location notes":"",
    "Location source":"Ward"
    }
  },
  {
    "type": "Feature",
    "geometry": {
       "type": "Point",
       "coordinates":  [ 34.8239604,0.22472987 ]
    },
    "properties": {
    "id":9760,
    "cbk_growers_code":"XDB17BF01",
    "producer_name":"Isukha-Ivugwi Factory",
    "Actor":"Factory",
    "Location accuracy":"Proximity",
    "Location notes":"",
    "Location source":"Ward"
    }
  },
  {
    "type": "Feature",
    "geometry": {
       "type": "Point",
       "coordinates":  [ 37.3530006,-1.4583921 ]
    },
    "properties": {
    "id":9447,
    "cbk_growers_code":"XBE29F01",
    "producer_name":"Ithaene Factory",
    "Actor":"Factory",
    "Location accuracy":"Proximity",
    "Location notes":"",
    "Location source":"Sublocation"
    }
  },
  {
    "type": "Feature",
    "geometry": {
       "type": "Point",
       "coordinates":  [ 37.3530006,-1.4583921 ]
    },
    "properties": {
    "id":9446,
    "cbk_growers_code":"XBE29",
    "producer_name":"Ithaeni F.C.S. Ltd",
    "Actor":"Cooperative Society",
    "Location accuracy":"Proximity",
    "Location notes":"",
    "Location source":"Sublocation"
    }
  },
  {
    "type": "Feature",
    "geometry": {
       "type": "Point",
       "coordinates":  [ 37.9368133,0.295991799 ]
    },
    "properties": {
    "id":9081,
    "cbk_growers_code":"XBB05F03",
    "producer_name":"Ithima Factory",
    "Actor":"Factory",
    "Location accuracy":"Proximity",
    "Location notes":"",
    "Location source":"WMS"
    }
  },
  {
    "type": "Feature",
    "geometry": {
       "type": "Point",
       "coordinates":  [ 37.32012595,-1.267125326 ]
    },
    "properties": {
    "id":8272,
    "cbk_growers_code":"BF.0027",
    "producer_name":"Ivui",
    "Actor":"Estate Producers",
    "Location accuracy":"Proximity",
    "Location notes":"close",
    "Location source":"WMS"
    }
  },
  {
    "type": "Feature",
    "geometry": {
       "type": "Point",
       "coordinates":  [ 37.04125,-0.67608 ]
    },
    "properties": {
    "id":8628,
    "cbk_growers_code":"XAB13",
    "producer_name":"Iyego Coffee Growers Co-operative Society Ltd",
    "Actor":"Cooperative Society",
    "Location accuracy":"Proximity",
    "Location notes":"",
    "Location source":"Kenya Schools"
    }
  },
  {
    "type": "Feature",
    "geometry": {
       "type": "Point",
       "coordinates":  [ 37.04125,-0.67608 ]
    },
    "properties": {
    "id":8629,
    "cbk_growers_code":"XAB13F01",
    "producer_name":"Iyego Factory",
    "Actor":"Factory",
    "Location accuracy":"Proximity",
    "Location notes":"",
    "Location source":"Kenya Schools"
    }
  },
  {
    "type": "Feature",
    "geometry": {
       "type": "Point",
       "coordinates":  [ 36.8237016,-0.9438883 ]
    },
    "properties": {
    "id":7745,
    "cbk_growers_code":"AB.0039",
    "producer_name":"Jubilee and Ndarugu Plantations",
    "Actor":"Estate Producers",
    "Location accuracy":"Proximity",
    "Location notes":"close",
    "Location source":"WMS"
    }
  },
  {
    "type": "Feature",
    "geometry": {
       "type": "Point",
       "coordinates":  [ 36.9792678,-0.4130759 ]
    },
    "properties": {
    "id":8019,
    "cbk_growers_code":"AG.0008",
    "producer_name":"Jungle and Keremara Ltd",
    "Actor":"coop",
    "Location accuracy":"good",
    "Location notes":"LimeSurvey on site",
    "Location source":"Lee Karimi"
    }
  },
  {
    "type": "Feature",
    "geometry": {
       "type": "Point",
       "coordinates":  [ 37.65795674,0.061743814 ]
    },
    "properties": {
    "id":9113,
    "cbk_growers_code":"XBB12F02",
    "producer_name":"Kaaga Factory",
    "Actor":"Factory",
    "Location accuracy":"Verified",
    "Location notes":"",
    "Location source":"WMS"
    }
  },
  {
    "type": "Feature",
    "geometry": {
       "type": "Point",
       "coordinates":  [ 37.32317,-0.50687 ]
    },
    "properties": {
    "id":8938,
    "cbk_growers_code":"XAD02",
    "producer_name":"Kabare F.C.S. Ltd",
    "Actor":"Cooperative Society",
    "Location accuracy":"Proximity",
    "Location notes":"",
    "Location source":"Kenya Schools"
    }
  },
  {
    "type": "Feature",
    "geometry": {
       "type": "Point",
       "coordinates":  [ 35.7662168,0.63908268 ]
    },
    "properties": {
    "id":9500,
    "cbk_growers_code":"XCD17",
    "producer_name":"Kabartonjo F.C.S. Ltd",
    "Actor":"Cooperative Society",
    "Location accuracy":"Proximity",
    "Location notes":"",
    "Location source":"Ward"
    }
  },
  {
    "type": "Feature",
    "geometry": {
       "type": "Point",
       "coordinates":  [ 36.8154067,-0.2383473 ]
    },
    "properties": {
    "id":8760,
    "cbk_growers_code":"XAB79",
    "producer_name":"Kabati F.C.S. Ltd",
    "Actor":"Cooperative Society",
    "Location accuracy":"Proximity",
    "Location notes":"",
    "Location source":"Sublocation"
    }
  },
  {
    "type": "Feature",
    "geometry": {
       "type": "Point",
       "coordinates":  [ 36.8154067,-0.2383473 ]
    },
    "properties": {
    "id":8761,
    "cbk_growers_code":"XAB79F01",
    "producer_name":"Kabati Factory",
    "Actor":"Factory",
    "Location accuracy":"Proximity",
    "Location notes":"",
    "Location source":"Sublocation"
    }
  },
  {
    "type": "Feature",
    "geometry": {
       "type": "Point",
       "coordinates":  [ 36.7262797,-1.2261206 ]
    },
    "properties": {
    "id":8536,
    "cbk_growers_code":"XAA05F01",
    "producer_name":"Kabete Factory",
    "Actor":"Factory",
    "Location accuracy":"Proximity",
    "Location notes":"",
    "Location source":"Ward"
    }
  },
  {
    "type": "Feature",
    "geometry": {
       "type": "Point",
       "coordinates":  [ 37.38910052,-0.41279118 ]
    },
    "properties": {
    "id":9015,
    "cbk_growers_code":"XAD18F02",
    "producer_name":"Kabingara Factory",
    "Actor":"Factory",
    "Location accuracy":"Verified",
    "Location notes":"",
    "Location source":"WMS"
    }
  },
  {
    "type": "Feature",
    "geometry": {
       "type": "Point",
       "coordinates":  [ 37.08969,-0.39108 ]
    },
    "properties": {
    "id":8633,
    "cbk_growers_code":"XAB13F05",
    "producer_name":"Kabiruini Factory",
    "Actor":"Factory",
    "Location accuracy":"Proximity",
    "Location notes":"",
    "Location source":"Kenya Schools"
    }
  },
  {
    "type": "Feature",
    "geometry": {
       "type": "Point",
       "coordinates":  [ 34.9415541,-0.4264442 ]
    },
    "properties": {
    "id":9880,
    "cbk_growers_code":"XEB01",
    "producer_name":"Kabondo F.C.S. Ltd",
    "Actor":"Cooperative Society",
    "Location accuracy":"Proximity",
    "Location notes":"",
    "Location source":"Ward"
    }
  },
  {
    "type": "Feature",
    "geometry": {
       "type": "Point",
       "coordinates":  [ 34.9415541,-0.4264442 ]
    },
    "properties": {
    "id":9881,
    "cbk_growers_code":"XEB01F01",
    "producer_name":"Kabondo Factory",
    "Actor":"Factory",
    "Location accuracy":"Proximity",
    "Location notes":"",
    "Location source":"Ward"
    }
  },
  {
    "type": "Feature",
    "geometry": {
       "type": "Point",
       "coordinates":  [ 37.21047797,-0.485456965 ]
    },
    "properties": {
    "id":8144,
    "cbk_growers_code":"AJ.0192",
    "producer_name":"Kabonge",
    "Actor":"Small Estates",
    "Location accuracy":"Proximity",
    "Location notes":"",
    "Location source":"Town"
    }
  },
  {
    "type": "Feature",
    "geometry": {
       "type": "Point",
       "coordinates":  [ 35.15545,-0.38904 ]
    },
    "properties": {
    "id":8382,
    "cbk_growers_code":"CF.0047",
    "producer_name":"Kaborok",
    "Actor":"Small Estates",
    "Location accuracy":"Proximity",
    "Location notes":"",
    "Location source":"Kenya Schools"
    }
  },
  {
    "type": "Feature",
    "geometry": {
       "type": "Point",
       "coordinates":  [ 34.8415313,-0.7892806 ]
    },
    "properties": {
    "id":9772,
    "cbk_growers_code":"XEA03F02",
    "producer_name":"Kabosi",
    "Actor":"Factory",
    "Location accuracy":"Proximity",
    "Location notes":"",
    "Location source":"Sublocation"
    }
  },
  {
    "type": "Feature",
    "geometry": {
       "type": "Point",
       "coordinates":  [ 37.6527781,-0.3759751 ]
    },
    "properties": {
    "id":9285,
    "cbk_growers_code":"XBC40",
    "producer_name":"Kabuboni F.C.S Ltd",
    "Actor":"Cooperative Society",
    "Location accuracy":"Proximity",
    "Location notes":"",
    "Location source":"Sublocation"
    }
  },
  {
    "type": "Feature",
    "geometry": {
       "type": "Point",
       "coordinates":  [ 35.2905273,0.0010089 ]
    },
    "properties": {
    "id":8346,
    "cbk_growers_code":"CB.0432",
    "producer_name":"Kabutiei",
    "Actor":"Estate Producers",
    "Location accuracy":"Proximity",
    "Location notes":"",
    "Location source":"WMS"
    }
  },
  {
    "type": "Feature",
    "geometry": {
       "type": "Point",
       "coordinates":  [ 36.95231604,-0.755752324 ]
    },
    "properties": {
    "id":8723,
    "cbk_growers_code":"XAB45",
    "producer_name":"Kaganda F.C.S. Ltd",
    "Actor":"Cooperative Society",
    "Location accuracy":"Verified",
    "Location notes":"",
    "Location source":"WMS"
    }
  },
  {
    "type": "Feature",
    "geometry": {
       "type": "Point",
       "coordinates":  [ 36.95231604,-0.755752324 ]
    },
    "properties": {
    "id":8724,
    "cbk_growers_code":"XAB45F01",
    "producer_name":"Kaganda Factory",
    "Actor":"Factory",
    "Location accuracy":"Verified",
    "Location notes":"",
    "Location source":"WMS"
    }
  },
  {
    "type": "Feature",
    "geometry": {
       "type": "Point",
       "coordinates":  [ 36.87509,-1.0409724 ]
    },
    "properties": {
    "id":8082,
    "cbk_growers_code":"AH.0002",
    "producer_name":"Kagera",
    "Actor":"Estate Producers",
    "Location accuracy":"Proximity",
    "Location notes":"",
    "Location source":"WMS"
    }
  },
  {
    "type": "Feature",
    "geometry": {
       "type": "Point",
       "coordinates":  [ 36.9413401,-0.5769359 ]
    },
    "properties": {
    "id":8952,
    "cbk_growers_code":"XAD03F02",
    "producer_name":"Kagongo Factory",
    "Actor":"Factory",
    "Location accuracy":"Proximity",
    "Location notes":"",
    "Location source":"Sublocation"
    }
  },
  {
    "type": "Feature",
    "geometry": {
       "type": "Point",
       "coordinates":  [ 36.91431,-0.52228 ]
    },
    "properties": {
    "id":8807,
    "cbk_growers_code":"XAC04F16",
    "producer_name":"Kagonye Factory",
    "Actor":"Factory",
    "Location accuracy":"Proximity",
    "Location notes":"",
    "Location source":"Kenya Schools"
    }
  },
  {
    "type": "Feature",
    "geometry": {
       "type": "Point",
       "coordinates":  [ 37.72736638,-0.016526862 ]
    },
    "properties": {
    "id":9108,
    "cbk_growers_code":"XBB10F02",
    "producer_name":"Kaguma Factory",
    "Actor":"Factory",
    "Location accuracy":"Proximity",
    "Location notes":"",
    "Location source":"Town"
    }
  },
  {
    "type": "Feature",
    "geometry": {
       "type": "Point",
       "coordinates":  [ 37.2271947,-0.4847765 ]
    },
    "properties": {
    "id":8467,
    "cbk_growers_code":"Kagumo_temp",
    "producer_name":"Kagumo Bulk",
    "Actor":"Small Estates",
    "Location accuracy":"Proximity",
    "Location notes":"",
    "Location source":"Sublocation"
    }
  },
  {
    "type": "Feature",
    "geometry": {
       "type": "Point",
       "coordinates":  [ 37.0803089,-0.8970132 ]
    },
    "properties": {
    "id":8762,
    "cbk_growers_code":"XAB81F01",
    "producer_name":"Kagumoini",
    "Actor":"Factory",
    "Location accuracy":"Proximity",
    "Location notes":"",
    "Location source":"Sublocation"
    }
  },
  {
    "type": "Feature",
    "geometry": {
       "type": "Point",
       "coordinates":  [ 37.0803089,-0.8970132 ]
    },
    "properties": {
    "id":8688,
    "cbk_growers_code":"XAB36F01",
    "producer_name":"Kagumoini Factory (Kamacharia F.C.S. Ltd)",
    "Actor":"Factory",
    "Location accuracy":"Proximity",
    "Location notes":"",
    "Location source":"Sublocation"
    }
  },
  {
    "type": "Feature",
    "geometry": {
       "type": "Point",
       "coordinates":  [ 37.0803089,-0.8970132 ]
    },
    "properties": {
    "id":8919,
    "cbk_growers_code":"XAC64F01",
    "producer_name":"Kagumoini Factory (Mugaga F.C.S. Ltd)",
    "Actor":"Factory",
    "Location accuracy":"Proximity",
    "Location notes":"",
    "Location source":"Sublocation"
    }
  },
  {
    "type": "Feature",
    "geometry": {
       "type": "Point",
       "coordinates":  [ 37.05601696,-0.538039884 ]
    },
    "properties": {
    "id":8925,
    "cbk_growers_code":"XACF05?",
    "producer_name":"Kagunyu",
    "Actor":"Cooperative Society",
    "Location accuracy":"Verified",
    "Location notes":"",
    "Location source":"WMS"
    }
  },
  {
    "type": "Feature",
    "geometry": {
       "type": "Point",
       "coordinates":  [ 37.05601696,-0.538039884 ]
    },
    "properties": {
    "id":8884,
    "cbk_growers_code":"XAC59F01",
    "producer_name":"Kagunyu Factory",
    "Actor":"Factory",
    "Location accuracy":"Verified",
    "Location notes":"",
    "Location source":"WMS"
    }
  },
  {
    "type": "Feature",
    "geometry": {
       "type": "Point",
       "coordinates":  [ 37.66300474,-0.093764113 ]
    },
    "properties": {
    "id":9137,
    "cbk_growers_code":"XBB30",
    "producer_name":"Kaguru F.C.S. Ltd",
    "Actor":"Cooperative Society",
    "Location accuracy":"Proximity",
    "Location notes":"Disambiguation, Makueni vs Meru",
    "Location source":"WMS"
    }
  },
  {
    "type": "Feature",
    "geometry": {
       "type": "Point",
       "coordinates":  [ 37.66300474,-0.093764113 ]
    },
    "properties": {
    "id":9138,
    "cbk_growers_code":"XBB30F01",
    "producer_name":"Kaguru Factory",
    "Actor":"Factory",
    "Location accuracy":"Proximity",
    "Location notes":"Disambiguation, Makueni vs Meru",
    "Location source":"WMS"
    }
  },
  {
    "type": "Feature",
    "geometry": {
       "type": "Point",
       "coordinates":  [ 36.9630352,-0.8822103 ]
    },
    "properties": {
    "id":8611,
    "cbk_growers_code":"XAB06F02",
    "producer_name":"Kaguthi Factory*",
    "Actor":"Factory",
    "Location accuracy":"Proximity",
    "Location notes":"",
    "Location source":"Sublocation"
    }
  },
  {
    "type": "Feature",
    "geometry": {
       "type": "Point",
       "coordinates":  [ 36.9630352,-0.8822103 ]
    },
    "properties": {
    "id":8786,
    "cbk_growers_code":"XAB95F02",
    "producer_name":"Kaguthi Factory*",
    "Actor":"Factory",
    "Location accuracy":"Proximity",
    "Location notes":"",
    "Location source":"Sublocation"
    }
  },
  {
    "type": "Feature",
    "geometry": {
       "type": "Point",
       "coordinates":  [ 37.2218963,-0.4458802 ]
    },
    "properties": {
    "id":10027,
    "cbk_growers_code":"XAD01FXX",
    "producer_name":"Kaguyu",
    "Actor":"Factory",
    "Location accuracy":"Proximity",
    "Location notes":"",
    "Location source":"Sublocation"
    }
  },
  {
    "type": "Feature",
    "geometry": {
       "type": "Point",
       "coordinates":  [ 37.03436,-0.43567 ]
    },
    "properties": {
    "id":8646,
    "cbk_growers_code":"XAB14F05",
    "producer_name":"Kahiga",
    "Actor":"Factory",
    "Location accuracy":"Proximity",
    "Location notes":"",
    "Location source":"Kenya Schools"
    }
  },
  {
    "type": "Feature",
    "geometry": {
       "type": "Point",
       "coordinates":  [ 37.01522733,-0.662564545 ]
    },
    "properties": {
    "id":8681,
    "cbk_growers_code":"XAB34F03",
    "producer_name":"Kahiriga Factory",
    "Actor":"Factory",
    "Location accuracy":"Verified",
    "Location notes":"",
    "Location source":"WMS"
    }
  },
  {
    "type": "Feature",
    "geometry": {
       "type": "Point",
       "coordinates":  [ 37.00614942,-0.936162639 ]
    },
    "properties": {
    "id":8708,
    "cbk_growers_code":"XAB42F01",
    "producer_name":"Kahiti Factory",
    "Actor":"Factory",
    "Location accuracy":"Verified",
    "Location notes":"",
    "Location source":"WMS"
    }
  },
  {
    "type": "Feature",
    "geometry": {
       "type": "Point",
       "coordinates":  [ 37.04131,-0.70931 ]
    },
    "properties": {
    "id":8621,
    "cbk_growers_code":"XAB12",
    "producer_name":"Kahuhia C.G.C.S. Ltd",
    "Actor":"Cooperative Society",
    "Location accuracy":"Proximity",
    "Location notes":"",
    "Location source":"Kenya Schools"
    }
  },
  {
    "type": "Feature",
    "geometry": {
       "type": "Point",
       "coordinates":  [ 37.04131,-0.70931 ]
    },
    "properties": {
    "id":8622,
    "cbk_growers_code":"XAB12F01",
    "producer_name":"Kahuhia Factory",
    "Actor":"Factory",
    "Location accuracy":"Proximity",
    "Location notes":"",
    "Location source":"Kenya Schools"
    }
  },
  {
    "type": "Feature",
    "geometry": {
       "type": "Point",
       "coordinates":  [ 36.12833,-0.59486 ]
    },
    "properties": {
    "id":7654,
    "cbk_growers_code":"AA.0684",
    "producer_name":"Kahuho Farm",
    "Actor":"Small Estates",
    "Location accuracy":"Proximity",
    "Location notes":"",
    "Location source":"Kenya Schools"
    }
  },
  {
    "type": "Feature",
    "geometry": {
       "type": "Point",
       "coordinates":  [ 36.9988625,-0.7482538 ]
    },
    "properties": {
    "id":8850,
    "cbk_growers_code":"XAC40F04",
    "producer_name":"Kahuro Factory",
    "Actor":"Factory",
    "Location accuracy":"Proximity",
    "Location notes":"",
    "Location source":"Sublocation"
    }
  },
  {
    "type": "Feature",
    "geometry": {
       "type": "Point",
       "coordinates":  [ 35.12379743,1.226892955 ]
    },
    "properties": {
    "id":9478,
    "cbk_growers_code":"XCB02",
    "producer_name":"Kaibos F.C.S. Ltd",
    "Actor":"Cooperative Society",
    "Location accuracy":"Verified",
    "Location notes":"",
    "Location source":"WMS"
    }
  },
  {
    "type": "Feature",
    "geometry": {
       "type": "Point",
       "coordinates":  [ 35.12379743,1.226892955 ]
    },
    "properties": {
    "id":9479,
    "cbk_growers_code":"XCB02F01",
    "producer_name":"Kaibos Factory",
    "Actor":"Factory",
    "Location accuracy":"Verified",
    "Location notes":"",
    "Location source":"WMS"
    }
  },
  {
    "type": "Feature",
    "geometry": {
       "type": "Point",
       "coordinates":  [ 36.92706,-0.95392 ]
    },
    "properties": {
    "id":8594,
    "cbk_growers_code":"XAA31F07",
    "producer_name":"Kairi Factory",
    "Actor":"Factory",
    "Location accuracy":"Proximity",
    "Location notes":"",
    "Location source":"Kenya Schools"
    }
  },
  {
    "type": "Feature",
    "geometry": {
       "type": "Point",
       "coordinates":  [ 37.63947513,-0.22677739 ]
    },
    "properties": {
    "id":9264,
    "cbk_growers_code":"XBC30F02",
    "producer_name":"Kairuni Factory",
    "Actor":"Factory",
    "Location accuracy":"Proximity",
    "Location notes":"",
    "Location source":"WMS"
    }
  },
  {
    "type": "Feature",
    "geometry": {
       "type": "Point",
       "coordinates":  [ 37.2859408,-0.5216671 ]
    },
    "properties": {
    "id":8931,
    "cbk_growers_code":"XAD01F05",
    "producer_name":"Kaitheri Factory",
    "Actor":"Factory",
    "Location accuracy":"Proximity",
    "Location notes":"",
    "Location source":"Sublocation"
    }
  },
  {
    "type": "Feature",
    "geometry": {
       "type": "Point",
       "coordinates":  [ 37.33963,-1.3647 ]
    },
    "properties": {
    "id":9399,
    "cbk_growers_code":"XBE08",
    "producer_name":"Kakuyuni F.C.S. Ltd",
    "Actor":"Cooperative Society",
    "Location accuracy":"Proximity",
    "Location notes":"",
    "Location source":"Kenya Schools"
    }
  },
  {
    "type": "Feature",
    "geometry": {
       "type": "Point",
       "coordinates":  [ 37.33963,-1.3647 ]
    },
    "properties": {
    "id":9400,
    "cbk_growers_code":"XBE08F01",
    "producer_name":"Kakuyuni Factory",
    "Actor":"Factory",
    "Location accuracy":"Proximity",
    "Location notes":"",
    "Location source":"Kenya Schools"
    }
  },
  {
    "type": "Feature",
    "geometry": {
       "type": "Point",
       "coordinates":  [ 37.30823,-1.49267 ]
    },
    "properties": {
    "id":9438,
    "cbk_growers_code":"XBE25",
    "producer_name":"Kaliluni F.C.S. Ltd",
    "Actor":"Cooperative Society",
    "Location accuracy":"Proximity",
    "Location notes":"",
    "Location source":"Kenya Schools"
    }
  },
  {
    "type": "Feature",
    "geometry": {
       "type": "Point",
       "coordinates":  [ 37.30823,-1.49267 ]
    },
    "properties": {
    "id":9439,
    "cbk_growers_code":"XBE25F01",
    "producer_name":"Kaliluni Factory",
    "Actor":"Factory",
    "Location accuracy":"Proximity",
    "Location notes":"",
    "Location source":"Kenya Schools"
    }
  },
  {
    "type": "Feature",
    "geometry": {
       "type": "Point",
       "coordinates":  [ 37.7040995,0.1647716 ]
    },
    "properties": {
    "id":9053,
    "cbk_growers_code":"XBA33F01",
    "producer_name":"Kalithiria",
    "Actor":"Factory",
    "Location accuracy":"Proximity",
    "Location notes":"",
    "Location source":"WMS"
    }
  },
  {
    "type": "Feature",
    "geometry": {
       "type": "Point",
       "coordinates":  [ 37.7040995,0.1647716 ]
    },
    "properties": {
    "id":9052,
    "cbk_growers_code":"XBA33",
    "producer_name":"Kalithiria F.C.S. Ltd",
    "Actor":"Cooperative Society",
    "Location accuracy":"Proximity",
    "Location notes":"",
    "Location source":"WMS"
    }
  },
  {
    "type": "Feature",
    "geometry": {
       "type": "Point",
       "coordinates":  [ 34.23555978,0.512189904 ]
    },
    "properties": {
    "id":9655,
    "cbk_growers_code":"XCI15",
    "producer_name":"Kaliwa F.C.S. Ltd",
    "Actor":"Cooperative Society",
    "Location accuracy":"Proximity",
    "Location notes":"",
    "Location source":"WMS"
    }
  },
  {
    "type": "Feature",
    "geometry": {
       "type": "Point",
       "coordinates":  [ 34.23555978,0.512189904 ]
    },
    "properties": {
    "id":9656,
    "cbk_growers_code":"XCI15F01",
    "producer_name":"Kaliwa Factory",
    "Actor":"Factory",
    "Location accuracy":"Proximity",
    "Location notes":"",
    "Location source":"WMS"
    }
  },
  {
    "type": "Feature",
    "geometry": {
       "type": "Point",
       "coordinates":  [ 37.0078124,-0.6038341 ]
    },
    "properties": {
    "id":8687,
    "cbk_growers_code":"XAB36",
    "producer_name":"Kamacharia F.C.S. Ltd",
    "Actor":"Cooperative Society",
    "Location accuracy":"Proximity",
    "Location notes":"",
    "Location source":"Ward"
    }
  },
  {
    "type": "Feature",
    "geometry": {
       "type": "Point",
       "coordinates":  [ 37.1704545,-0.8406336 ]
    },
    "properties": {
    "id":8743,
    "cbk_growers_code":"XAB70",
    "producer_name":"Kamahuha F.C.S. Ltd",
    "Actor":"Cooperative Society",
    "Location accuracy":"Proximity",
    "Location notes":"",
    "Location source":"Ward"
    }
  },
  {
    "type": "Feature",
    "geometry": {
       "type": "Point",
       "coordinates":  [ 37.8285443,-0.385473 ]
    },
    "properties": {
    "id":9134,
    "cbk_growers_code":"XBB25F02",
    "producer_name":"Kamaindi Factory",
    "Actor":"Factory",
    "Location accuracy":"Proximity",
    "Location notes":"",
    "Location source":"Sublocation"
    }
  },
  {
    "type": "Feature",
    "geometry": {
       "type": "Point",
       "coordinates":  [ 37.622947,-0.231887 ]
    },
    "properties": {
    "id":9224,
    "cbk_growers_code":"XBC17",
    "producer_name":"Kamara F.C.S Ltd",
    "Actor":"Cooperative Society",
    "Location accuracy":"Verified",
    "Location notes":"",
    "Location source":"WMS"
    }
  },
  {
    "type": "Feature",
    "geometry": {
       "type": "Point",
       "coordinates":  [ 37.622947,-0.231887 ]
    },
    "properties": {
    "id":9261,
    "cbk_growers_code":"XBC29F01",
    "producer_name":"Kamara Factory",
    "Actor":"Factory",
    "Location accuracy":"Verified",
    "Location notes":"",
    "Location source":"WMS"
    }
  },
  {
    "type": "Feature",
    "geometry": {
       "type": "Point",
       "coordinates":  [ 34.92968561,0.330056849 ]
    },
    "properties": {
    "id":9761,
    "cbk_growers_code":"XDB17F02",
    "producer_name":"Kambiri",
    "Actor":"Factory",
    "Location accuracy":"Proximity",
    "Location notes":"",
    "Location source":"Town"
    }
  },
  {
    "type": "Feature",
    "geometry": {
       "type": "Point",
       "coordinates":  [ 36.7779108,-1.0586336 ]
    },
    "properties": {
    "id":8141,
    "cbk_growers_code":"AJ.0173",
    "producer_name":"Kambumbu and Kabumbu-Githunguri Growers Company Ltd",
    "Actor":"Estate Producers",
    "Location accuracy":"Proximity",
    "Location notes":"close",
    "Location source":"WMS"
    }
  },
  {
    "type": "Feature",
    "geometry": {
       "type": "Point",
       "coordinates":  [ 37.8764301,0.2336874 ]
    },
    "properties": {
    "id":8182,
    "cbk_growers_code":"BA.0004",
    "producer_name":"Kamburi/Kirunguria and Nyambene Coffee Est.",
    "Actor":"Estate Producers",
    "Location accuracy":"Proximity",
    "Location notes":"close",
    "Location source":"WMS"
    }
  },
  {
    "type": "Feature",
    "geometry": {
       "type": "Point",
       "coordinates":  [ 36.743636,-1.0263597 ]
    },
    "properties": {
    "id":8005,
    "cbk_growers_code":"AE.0065",
    "producer_name":"Kamburu Estate",
    "Actor":"Small Estates",
    "Location accuracy":"Proximity",
    "Location notes":"",
    "Location source":"Ward"
    }
  },
  {
    "type": "Feature",
    "geometry": {
       "type": "Point",
       "coordinates":  [ 37.3555623,-1.2436108 ]
    },
    "properties": {
    "id":9424,
    "cbk_growers_code":"XBE19",
    "producer_name":"Kambusu F.C.S. Ltd",
    "Actor":"Cooperative Society",
    "Location accuracy":"Proximity",
    "Location notes":"",
    "Location source":"Sublocation"
    }
  },
  {
    "type": "Feature",
    "geometry": {
       "type": "Point",
       "coordinates":  [ 36.89639,-1.3275 ]
    },
    "properties": {
    "id":7469,
    "cbk_growers_code":"AA.0061",
    "producer_name":"Kamiti and Mboi Kamiti F.Co.",
    "Actor":"Estate Producers",
    "Location accuracy":"Proximity",
    "Location notes":"",
    "Location source":"Kenya Schools"
    }
  },
  {
    "type": "Feature",
    "geometry": {
       "type": "Point",
       "coordinates":  [ 36.89639,-1.3275 ]
    },
    "properties": {
    "id":7480,
    "cbk_growers_code":"AA.0150",
    "producer_name":"Kamiti Bridge",
    "Actor":"Estate Producers",
    "Location accuracy":"Proximity",
    "Location notes":"",
    "Location source":"Kenya Schools"
    }
  },
  {
    "type": "Feature",
    "geometry": {
       "type": "Point",
       "coordinates":  [ 36.89639,-1.3275 ]
    },
    "properties": {
    "id":7468,
    "cbk_growers_code":"AA.0059",
    "producer_name":"Kamiti Matropi and Mboi Kamiti F.Co.",
    "Actor":"Estate Producers",
    "Location accuracy":"Proximity",
    "Location notes":"",
    "Location source":"Kenya Schools"
    }
  },
  {
    "type": "Feature",
    "geometry": {
       "type": "Point",
       "coordinates":  [ 36.89639,-1.3275 ]
    },
    "properties": {
    "id":7466,
    "cbk_growers_code":"AA.0055",
    "producer_name":"Kamiti Valley and Mboi Kamiti F.Co.",
    "Actor":"Estate Producers",
    "Location accuracy":"Proximity",
    "Location notes":"",
    "Location source":"Kenya Schools"
    }
  },
  {
    "type": "Feature",
    "geometry": {
       "type": "Point",
       "coordinates":  [ 37.4651813,-0.5379109 ]
    },
    "properties": {
    "id":8268,
    "cbk_growers_code":"BD.0122",
    "producer_name":"Kamiu",
    "Actor":"Small Estates",
    "Location accuracy":"Proximity",
    "Location notes":"",
    "Location source":"Sublocation"
    }
  },
  {
    "type": "Feature",
    "geometry": {
       "type": "Point",
       "coordinates":  [ 36.9196488,-0.5148414 ]
    },
    "properties": {
    "id":8797,
    "cbk_growers_code":"XAC04F06",
    "producer_name":"Kamoko Factory",
    "Actor":"Factory",
    "Location accuracy":"Proximity",
    "Location notes":"",
    "Location source":"Sublocation"
    }
  },
  {
    "type": "Feature",
    "geometry": {
       "type": "Point",
       "coordinates":  [ 36.7803994,-1.028906 ]
    },
    "properties": {
    "id":8534,
    "cbk_growers_code":"XAA03F13",
    "producer_name":"Kamuchege Factory",
    "Actor":"Factory",
    "Location accuracy":"Proximity",
    "Location notes":"",
    "Location source":"Sublocation"
    }
  },
  {
    "type": "Feature",
    "geometry": {
       "type": "Point",
       "coordinates":  [ 36.7902531,-1.1409179 ]
    },
    "properties": {
    "id":8086,
    "cbk_growers_code":"AI.0005",
    "producer_name":"Kamundu",
    "Actor":"Estate Producers",
    "Location accuracy":"Proximity",
    "Location notes":"Disambiguation",
    "Location source":"WMS"
    }
  },
  {
    "type": "Feature",
    "geometry": {
       "type": "Point",
       "coordinates":  [ 36.7902531,-1.1409179 ]
    },
    "properties": {
    "id":8101,
    "cbk_growers_code":"AI.005B",
    "producer_name":"Kamundu",
    "Actor":"Small Estates",
    "Location accuracy":"Proximity",
    "Location notes":"Disambiguation",
    "Location source":"WMS"
    }
  },
  {
    "type": "Feature",
    "geometry": {
       "type": "Point",
       "coordinates":  [ 36.7902531,-1.1409179 ]
    },
    "properties": {
    "id":8470,
    "cbk_growers_code":"Kamundu_temp",
    "producer_name":"Kamundu",
    "Actor":"Small Estates",
    "Location accuracy":"Proximity",
    "Location notes":"Disambiguation",
    "Location source":"WMS"
    }
  },
  {
    "type": "Feature",
    "geometry": {
       "type": "Point",
       "coordinates":  [ 36.7902531,-1.1409179 ]
    },
    "properties": {
    "id":8087,
    "cbk_growers_code":"AI.0005B",
    "producer_name":"Kamundu B",
    "Actor":"Small Estates",
    "Location accuracy":"Proximity",
    "Location notes":"Disambiguation",
    "Location source":"WMS"
    }
  },
  {
    "type": "Feature",
    "geometry": {
       "type": "Point",
       "coordinates":  [ 36.7902531,-1.1409179 ]
    },
    "properties": {
    "id":8088,
    "cbk_growers_code":"AI.0006",
    "producer_name":"Kamundu?",
    "Actor":"Small Estates",
    "Location accuracy":"Proximity",
    "Location notes":"Disambiguation",
    "Location source":"WMS"
    }
  },
  {
    "type": "Feature",
    "geometry": {
       "type": "Point",
       "coordinates":  [ 36.7943784,-0.903433 ]
    },
    "properties": {
    "id":8825,
    "cbk_growers_code":"XAC18F01",
    "producer_name":"Kamunyaka Factory",
    "Actor":"Factory",
    "Location accuracy":"Proximity",
    "Location notes":"",
    "Location source":"Sublocation"
    }
  },
  {
    "type": "Feature",
    "geometry": {
       "type": "Point",
       "coordinates":  [ 37.22098749,-1.381042624 ]
    },
    "properties": {
    "id":9460,
    "cbk_growers_code":"XBE36",
    "producer_name":"Kamuthanga C.G.C.S Ltd",
    "Actor":"Cooperative Society",
    "Location accuracy":"Proximity",
    "Location notes":"",
    "Location source":"Town"
    }
  },
  {
    "type": "Feature",
    "geometry": {
       "type": "Point",
       "coordinates":  [ 37.22098749,-1.381042624 ]
    },
    "properties": {
    "id":9461,
    "cbk_growers_code":"XBE36F01",
    "producer_name":"Kamuthanga Factory",
    "Actor":"Factory",
    "Location accuracy":"Proximity",
    "Location notes":"",
    "Location source":"Town"
    }
  },
  {
    "type": "Feature",
    "geometry": {
       "type": "Point",
       "coordinates":  [ 37.4898,-0.45065 ]
    },
    "properties": {
    "id":9300,
    "cbk_growers_code":"XBD04F02",
    "producer_name":"Kamviu Factory",
    "Actor":"Factory",
    "Location accuracy":"Proximity",
    "Location notes":"",
    "Location source":"Kenya Schools"
    }
  },
  {
    "type": "Feature",
    "geometry": {
       "type": "Point",
       "coordinates":  [ 37.39707199,-0.448510159 ]
    },
    "properties": {
    "id":8999,
    "cbk_growers_code":"XAD13F02",
    "producer_name":"Kamwangi Factory",
    "Actor":"Factory",
    "Location accuracy":"Verified",
    "Location notes":"",
    "Location source":"WMS"
    }
  },
  {
    "type": "Feature",
    "geometry": {
       "type": "Point",
       "coordinates":  [ 36.91414523,-0.402052899 ]
    },
    "properties": {
    "id":8030,
    "cbk_growers_code":"AG.0056",
    "producer_name":"Kamwenja and Archdiocese Of Nyeri",
    "Actor":"Estate Producers",
    "Location accuracy":"Proximity",
    "Location notes":"close",
    "Location source":"WMS"
    }
  },
  {
    "type": "Feature",
    "geometry": {
       "type": "Point",
       "coordinates":  [ 37.04744245,-0.907622049 ]
    },
    "properties": {
    "id":8609,
    "cbk_growers_code":"XAB06",
    "producer_name":"Kandara C.G.C.S. Ltd",
    "Actor":"Cooperative Society",
    "Location accuracy":"Proximity",
    "Location notes":"",
    "Location source":"Town"
    }
  },
  {
    "type": "Feature",
    "geometry": {
       "type": "Point",
       "coordinates":  [ 37.7637204,0.4241199 ]
    },
    "properties": {
    "id":9037,
    "cbk_growers_code":"XBA15F02",
    "producer_name":"Kangeta Factory",
    "Actor":"Factory",
    "Location accuracy":"Proximity",
    "Location notes":"",
    "Location source":"Sublocation"
    }
  },
  {
    "type": "Feature",
    "geometry": {
       "type": "Point",
       "coordinates":  [ 37.7637204,0.4241199 ]
    },
    "properties": {
    "id":9042,
    "cbk_growers_code":"XBA23",
    "producer_name":"Kangeta FCS",
    "Actor":"Cooperative Society",
    "Location accuracy":"Proximity",
    "Location notes":"",
    "Location source":"Sublocation"
    }
  },
  {
    "type": "Feature",
    "geometry": {
       "type": "Point",
       "coordinates":  [ 37.16319,-0.506 ]
    },
    "properties": {
    "id":8818,
    "cbk_growers_code":"XAC09F03",
    "producer_name":"Kangocho Factory",
    "Actor":"Factory",
    "Location accuracy":"Proximity",
    "Location notes":"",
    "Location source":"Kenya Schools"
    }
  },
  {
    "type": "Feature",
    "geometry": {
       "type": "Point",
       "coordinates":  [ 36.955536,-0.631922528 ]
    },
    "properties": {
    "id":8750,
    "cbk_growers_code":"XAB73",
    "producer_name":"Kangunu F.C.S. Ltd",
    "Actor":"Cooperative Society",
    "Location accuracy":"Verified",
    "Location notes":"",
    "Location source":"WMS"
    }
  },
  {
    "type": "Feature",
    "geometry": {
       "type": "Point",
       "coordinates":  [ 36.955536,-0.631922528 ]
    },
    "properties": {
    "id":8751,
    "cbk_growers_code":"XAB73F01",
    "producer_name":"Kangunu Factory (Kangunu F.C.S. Ltd)",
    "Actor":"Factory",
    "Location accuracy":"Verified",
    "Location notes":"",
    "Location source":"WMS"
    }
  },
  {
    "type": "Feature",
    "geometry": {
       "type": "Point",
       "coordinates":  [ 37.5265858,-0.3756066 ]
    },
    "properties": {
    "id":9329,
    "cbk_growers_code":"XBD12F01",
    "producer_name":"Kanja Factory",
    "Actor":"Factory",
    "Location accuracy":"Proximity",
    "Location notes":"",
    "Location source":"Sublocation"
    }
  },
  {
    "type": "Feature",
    "geometry": {
       "type": "Point",
       "coordinates":  [ 38.079094,-0.0087599 ]
    },
    "properties": {
    "id":7515,
    "cbk_growers_code":"AA.0249A",
    "producer_name":"Kanjoro Farm",
    "Actor":"Small Estates",
    "Location accuracy":"Proximity",
    "Location notes":"",
    "Location source":"Sublocation"
    }
  },
  {
    "type": "Feature",
    "geometry": {
       "type": "Point",
       "coordinates":  [ 37.7293575,0.1117408 ]
    },
    "properties": {
    "id":9030,
    "cbk_growers_code":"XBA01F05",
    "producer_name":"Kanthiari Factory",
    "Actor":"Factory",
    "Location accuracy":"Proximity",
    "Location notes":"",
    "Location source":"WMS"
    }
  },
  {
    "type": "Feature",
    "geometry": {
       "type": "Point",
       "coordinates":  [ 36.78222,-1.16528 ]
    },
    "properties": {
    "id":8519,
    "cbk_growers_code":"XAA02F02",
    "producer_name":"Kanunga Factory",
    "Actor":"Factory",
    "Location accuracy":"Proximity",
    "Location notes":"",
    "Location source":"Kenya Schools"
    }
  },
  {
    "type": "Feature",
    "geometry": {
       "type": "Point",
       "coordinates":  [ 37.6720582,-0.1169185 ]
    },
    "properties": {
    "id":9175,
    "cbk_growers_code":"XBB66F01",
    "producer_name":"Kanyakine Factory",
    "Actor":"Factory",
    "Location accuracy":"Proximity",
    "Location notes":"",
    "Location source":"Sublocation"
    }
  },
  {
    "type": "Feature",
    "geometry": {
       "type": "Point",
       "coordinates":  [ 36.89892,-0.67973 ]
    },
    "properties": {
    "id":8668,
    "cbk_growers_code":"XAB27",
    "producer_name":"Kanyenya-Ini F.C.S. Ltd",
    "Actor":"Cooperative Society",
    "Location accuracy":"Proximity",
    "Location notes":"",
    "Location source":"Kenya Schools"
    }
  },
  {
    "type": "Feature",
    "geometry": {
       "type": "Point",
       "coordinates":  [ 36.8538352,-0.9225451 ]
    },
    "properties": {
    "id":8595,
    "cbk_growers_code":"XAA31F08",
    "producer_name":"Kanyoni Factory",
    "Actor":"Factory",
    "Location accuracy":"Proximity",
    "Location notes":"",
    "Location source":"Sublocation"
    }
  },
  {
    "type": "Feature",
    "geometry": {
       "type": "Point",
       "coordinates":  [ 37.71767763,-0.039906372 ]
    },
    "properties": {
    "id":9131,
    "cbk_growers_code":"XBB23F01",
    "producer_name":"Kaongo Factory",
    "Actor":"Factory",
    "Location accuracy":"Verified",
    "Location notes":"",
    "Location source":"WMS"
    }
  },
  {
    "type": "Feature",
    "geometry": {
       "type": "Point",
       "coordinates":  [ 35.4574127,-0.1841754 ]
    },
    "properties": {
    "id":8405,
    "cbk_growers_code":"CI.0019",
    "producer_name":"Kaplaba",
    "Actor":"Estate Producers",
    "Location accuracy":"Proximity",
    "Location notes":"close",
    "Location source":"WMS"
    }
  },
  {
    "type": "Feature",
    "geometry": {
       "type": "Point",
       "coordinates":  [ 34.817082,0.9594806 ]
    },
    "properties": {
    "id":8339,
    "cbk_growers_code":"CB.0043",
    "producer_name":"Kapretwa and Siboti Union Ltd",
    "Actor":"Estate Producers",
    "Location accuracy":"Proximity",
    "Location notes":"",
    "Location source":"WMS"
    }
  },
  {
    "type": "Feature",
    "geometry": {
       "type": "Point",
       "coordinates":  [ 35.3410471,-0.2871542 ]
    },
    "properties": {
    "id":9617,
    "cbk_growers_code":"XCF04F01",
    "producer_name":"Kapsaos Factory",
    "Actor":"Factory",
    "Location accuracy":"Proximity",
    "Location notes":"",
    "Location source":"Ward"
    }
  },
  {
    "type": "Feature",
    "geometry": {
       "type": "Point",
       "coordinates":  [ 35.15528411,1.094810983 ]
    },
    "properties": {
    "id":9669,
    "cbk_growers_code":"XCI26",
    "producer_name":"Kapsara C.G.C.S. Ltd",
    "Actor":"Cooperative Society",
    "Location accuracy":"Proximity",
    "Location notes":"",
    "Location source":"WMS"
    }
  },
  {
    "type": "Feature",
    "geometry": {
       "type": "Point",
       "coordinates":  [ 35.1570037,0.05187263 ]
    },
    "properties": {
    "id":9619,
    "cbk_growers_code":"XCF06F01",
    "producer_name":"Kapsimotwo Factory",
    "Actor":"Factory",
    "Location accuracy":"Proximity",
    "Location notes":"",
    "Location source":"Ward"
    }
  },
  {
    "type": "Feature",
    "geometry": {
       "type": "Point",
       "coordinates":  [ 35.3782516,0.5496485 ]
    },
    "properties": {
    "id":8335,
    "cbk_growers_code":"CB.0011",
    "producer_name":"Kapsoen",
    "Actor":"Estate Producers",
    "Location accuracy":"Proximity",
    "Location notes":"",
    "Location source":"WMS"
    }
  },